URL|Products|Category|Brand|Service_Centre_Name|Contact_Person|Address|Pincode|E-mail|Website|State|City|Latitude|Longitude|std_code|Phone1|Phone2|Mobile1|Mobile2|Mobile3|Mobile4
https://edge.canon.co.in/service-networks|professional camcorder|master service center|Canon|Level IV Camera Service Centre|Mrs. K Rukmini Srinivas|No3, 3rd Floor, Salarpuria Windsor,Ulsoor Road|560042|customersupport@canon.co.in||Karnataka|Bangalore|12.9755195|77.617655| ||||||
https://edge.canon.co.in/service-networks|professional camcorder|master service center|Canon|Level IV Camera Service Centre|Mrs. Sonal Behl|Unit No. - 214 To 218, 2Nd Floor, Narain Manzil, Barakhamba Road|110001|customersupport@canon.co.in||Delhi/NCR|Delhi|28.629368|77.223847| ||||||
https://edge.canon.co.in/service-networks|professional camcorder|master service center|Canon|Level IV Camera Service Centre||4th Floor, 4A, Abanindranath Sarani (Camac Street)|700017|customersupport@canon.co.in||West Bengal|Kolkata|22.546133|88.352605| ||||||
https://edge.canon.co.in/service-networks|professional camcorder|master service center|Canon|Level IV Camera Service Centre||502, 5th Floor 194, Natraj By Rustomjee, Junction of Andheri Kurla Road and Western Express Highway|400064|customersupport@canon.co.in||Maharashtra|Mumbai|19.1164748|72.854374| ||||||
https://edge.canon.co.in/service-networks|professional camcorder|master service center|Canon|Level IV Camera Service Centre|Mrs. Sonal Behl|Unit No. - 214 To 218, 2nd Floor, Narain Manzil, Barakhamba Road|110001|customersupport@canon.co.in||Delhi|Delhi|28.629368|77.223847| ||||||
https://edge.canon.co.in/service-networks|professional camcorder|master service center|Canon|Level IV Camera Service Centre||3rd Floor imperial trade center, MG Road Cochin|682035|customersupport@canon.co.in||Kerala|Cochin|9.9828783|76.282003| ||||||
https://edge.canon.co.in/service-networks|professional camcorder|master service center|Canon|Level IV Camera Service Centre||“SKCL” Infinite Towers,8th Floor, Plot No – A21 & A22,Thiru-Vi-Ka Industrial Estate, Guindy, Chennai – 600032|600032|customersupport@canon.co.in||Tamil Nadu|Chennai|13.0127159|80.200938| ||||||
https://edge.canon.co.in/service-networks|professional camcorder|Camera Collection Point|Canon|Mehak Peripherals|Mr. Lalit Arora|106 1st Floor,Padma Tower 1 Rajendra Place|110008|cccdel.ncr@gmail.com||Delhi/NCR|Delhi|28.6451836|77.178038| ||||||
https://edge.canon.co.in/service-networks|professional camcorder|Camera Collection Point|Canon|Tez-X Automation|Mr. Nishan Singh|304- 3rd Floor; Bajaj House; Building 97; Nehru Place; New Delhi -110019|110019|canonasc.delhi@gmail.com||Delhi|Delhi|28.5479938|77.251786| ||||||
https://edge.canon.co.in/service-networks|professional camcorder|Camera Collection Point|Canon|Tez-X Automation|Mr. Nishan Singh|304- 3rd Floor; Bajaj House; Building 97; Nehru Place; New Delhi -110019|110019|canonasc.delhi@gmail.com||Delhi/NCR|Delhi|28.5479938|77.251786| ||||||
https://edge.canon.co.in/service-networks|professional camcorder|Camera Collection Point|Canon|Maxtech Solutions|Mr. Avinash Tomar|77 Rahul Complex,Ram Nagar Kirana Mandi ChowkAmbedkar Road|201001|maxtechsolutionsgzb@gmail.com||Delhi/NCR|Ghaziabad|28.6610583|77.432008| |||9213717470|||
https://edge.canon.co.in/service-networks|professional camcorder|Camera Collection Point|Canon|Silicon IT Solutions|Manoj Tomer|Shop no. 12B, Ground Floor, Laxmi Market (Atta Market ), Sec-27 Noida ( Near to Vinayak hospital)|284001|sits.canon@gmail.com||Delhi/NCR|Noida|28.5711847|77.328182| ||||||
https://edge.canon.co.in/service-networks|professional camcorder|Camera Collection Point|Canon|Mehak Infotech|Atul Kumar|1st Floor 42/38 Vashisth Complex, Rajiv colony, NH -8 Gurgaon -122001, Near Foot Over Bridge|122001|asccanon@gmail.com||Haryana|Gurgaon|28.3499215|77.066034| ||||||
https://edge.canon.co.in/service-networks|professional camcorder|Camera Collection Point|Canon|Appolo  Systems And Services|Rakesh kumar|Shop No 220, Block No 22, SDA ComplexKasumpati|171009|appollosystems@yahoo.com||Himachal Pradesh|Shimla|31.0784644|77.180304| ||||||
https://edge.canon.co.in/service-networks|professional camcorder|camera collection point|Canon|Shree Balaji Technology|Mukesh|2nd Basement.Sh.Balazi Plaza,Out Site Nagori Gate,Near Handloom emporaim|125001|GCS_hisar@yahoo.co.in||Haryana|Hissar|29.1616981|75.721108| |||9215676500|||
https://edge.canon.co.in/service-networks|professional camcorder|Camera Collection Point|Canon|Gee Computers|Gurmukh|SCO # 24-25 , Doaba Market, Adj. Punjab Roadwayes Depot No 1 Opp. Bus Stand, Jalandhar|144001|cccjal@gmail.com||Punjab|Jalandhar|31.312231|75.593256| ||||||
https://edge.canon.co.in/service-networks|professional camcorder|Camera Collection Point|Canon|High Performance Computer Co|Mr Jagmohan|66 First Floor Nehru Shopping ComplexLawrence Road|143001|jaggu_hpc@yahoo.com||Punjab|Amritsar|31.6418942|74.876| ||||||
https://edge.canon.co.in/service-networks|professional camcorder|Camera Collection Point|Canon|MS VP Sale And Servicing|Vinod Raina|5A/A Gandhi Nagar Near Police Station On National Highway Side|180004|vinod.rainavpservicing@gmail.com||Jammu and Kashmir|Jammu|32.701706|74.855046| ||||||
https://edge.canon.co.in/service-networks|professional camcorder|Camera Collection Point|Canon|Next Vision Technology|Jitender Singh Guleria|Shop No 128/9, 1st Floor,College Raod|175001|nextvision.mnd@gmail.com||Himachal Pradesh|Mandi|31.6962683|76.923973| ||||||
https://edge.canon.co.in/service-networks|professional camcorder|Camera Collection Point|Canon|Offcom Equipments|Mr Sajad|90 Munir ManzilRegal Chowk|190001|sajad.banday@offcom-sgr.com||Jammu and Kashmir|Srinagar|34.0826627|74.862409| ||||||
https://edge.canon.co.in/service-networks|professional camcorder|Camera Collection Point|Canon|Soniteck Computer|Anil Kumar|Shop No 9 Dhobi Ghat MarketNear Sanghi Nursing Home Sonipat Stand|124001|sonitekcomputers@yahoo.com||Haryana|Rohtak|28.8973324|76.586565| |||9896671380|||
https://edge.canon.co.in/service-networks|professional camcorder|Camera Collection Point|Canon|Sterlite Technical Services|Shailender Tomar|2nd floor  7- New Road opp. MKP(PG)College  Near Doon Hospital|248001|cccdeh@gmail.com||Uttarakhand|Dehradun|30.3190194|78.04365| ||||||
https://edge.canon.co.in/service-networks|professional camcorder|Camera Collection Point|Canon|The Computer Point|Mr Ajay thakur|The Computer point SCO- 11 Top Floor Sec 20 D Chandigarh 160022|160020|cccchd@gmail.com||Punjab|Chandigarh|30.7401917|76.748064| |||9417421292|||
https://edge.canon.co.in/service-networks|professional camcorder|Camera Collection Point|Canon|DEV Technology|Mr Kamal Bisht|1, Guru Teg Bahadur Market,Tikonia, HALDWANI, Nainital |263139|devtechnology05@gmail.com; devtech.service@yahoo.com||Uttarakhand|Haldwani|29.223592|79.530387| ||||||
https://edge.canon.co.in/service-networks|professional camcorder|Camera Collection Point|Canon|N A Marketing|Mr Ajay thakur|Shop No. 1, Chadha Complex, Jail Road, Near Dukhnivaran Sahib Gurdwara, Patiala|147001|namarketing175@gmail.com||Punjab|Patiala|30.346952|76.396075| ||||||
https://edge.canon.co.in/service-networks|professional camcorder|Camera Collection Point|Canon|Himachal Infotech|Mr Rajiv|Near Himachal Cinema Nangal Road UNA HP|174303|himachalinfotech2010@gmail.com||Himachal Pradesh|Una|31.4662255|76.276178| ||||||
https://edge.canon.co.in/service-networks|professional camcorder|Camera Collection Point|Canon|GTE Computer|Mr Goutam|GIC Road near Lead Bank Pithoragarh UK|252501|gtepth@gmail.com||Uttarakhand|Pithoragarh|29.5856649|80.210775| ||||||
https://edge.canon.co.in/service-networks|professional camcorder|Camera Collection Point|Canon|Om Office Automation|Mr Dinesh|Near Army Cantt Shuvidha Nagar Rudraprayag UK|246171|omofficeautomation@gmail.com||Uttarakhand|Rudraprayag|30.2844141|78.981141| ||||||
https://edge.canon.co.in/service-networks|professional camcorder|Camera Collection Point|Canon|Krishna Computer|Mr Ankur|Shop no 959 New awas vikas Saharanpur UP|247001|krishnacomputer.printer@gmail.com||Uttar Pradesh|Saharanpur|29.9383853|77.543992| ||||||
https://edge.canon.co.in/service-networks|professional camcorder|Camera Collection Point|Canon|Print Media|Mr Ishfaq Guhnoo|Dar complex 1st & 2nd Floor opposite Hotel Four Bhai General Bus Stand Anantnag J&K|192101|ishfaq_25@yahoo.com||Jammu and Kashmir|Anantnag|33.7367021|75.145894| ||||||
https://edge.canon.co.in/service-networks|professional camcorder|Camera Collection Point|Canon|Maps Pheripherals|Mr Markandey Mishra|Shop No-13, 1st Floor, Sri Ram Complex, Near Roadways, Cantt, Varanasi|221001|cccban@gmail.com||Uttar Pradesh|Varanasi|25.329059|82.965831| ||||||
https://edge.canon.co.in/service-networks|professional camcorder|camera collection point|Canon|Global Intech Services|Mr Azhar Husain|FFC 05, Somdutt Plaza 3rd Naveen Market, The Mall|208001|ccckan1@gmail.com||Uttar Pradesh|Kanpur|26.4822916|80.317197| |||9415515523|9984786491||
https://edge.canon.co.in/service-networks|professional camcorder|Camera Collection Point|Canon|A.V. Computer Services|Mr Vaibhav|city enclave , oppsite kumar nurshing home, ramghat road , aligarh|202001|canon.aligarh@gmail.com||Uttar Pradesh|Aligarh|27.8885505|78.080712| ||||||
https://edge.canon.co.in/service-networks|professional camcorder|Camera Collection Point|Canon|Sandeep Commercial College|Mr Sachin|4,satyam palaza, PL Sharma Road|250001|sandeep_commercial@yahoo.com||Uttar Pradesh|Meerut|28.9929603|77.710258| ||||||
https://edge.canon.co.in/service-networks|professional camcorder|Camera Collection Point|Canon|Unique Computer And Communication|Mr Binay Yadav|Shop No.425Shaligram Bhawan,Shahi MarketCinema RoadGolghar|273001|unique_com2003@yahoo.com||Uttar Pradesh|Gorakhpur|26.7560875|83.370182| ||||||
https://edge.canon.co.in/service-networks|professional camcorder|Camera Collection Point|Canon|R.R. Solutions|Mr Shad Alam|B-61, upper Basement, First Floor, Indira Bhawan, Civil Linc, Allahabad|211001|rrsolutionallahabad@gmail.com||Uttar Pradesh|Allahabad|25.4494274|81.834859| ||||||
https://edge.canon.co.in/service-networks|professional camcorder|Camera Collection Point|Canon|Sai Computers|Mr Vijay|Bala Ji Colony, Friends Colony, Bharthana Road, Etawah|206001|saicanon7@gmail.com||Uttar Pradesh|Etawah|26.7892761|79.02968| ||||||
https://edge.canon.co.in/service-networks|professional camcorder|Camera Collection Point|Canon|OM Computers|Mr Prahyanshu|Main Road, Khaprail Bazar, Lakhimpur-Khiri|262701|omlmp@yahoo.com||Uttar Pradesh|Lakhimpur-Khiri|27.9477801|80.78057| |||9452145854|||
https://edge.canon.co.in/service-networks|professional camcorder|Camera Collection Point|Canon|R. G. Solutions|Mr Gaurav Singh Rajput|756/48 Nand Residency,Narayan Bagh Road|284001|rgsolutionsjhansi@gmail.com||Uttar Pradesh|Jhansi|25.4493269|78.591426| |||8756287503|9696843978||
https://edge.canon.co.in/service-networks|professional camcorder|Camera Collection Point|Canon|Max Smart Gallery|Mr Sonu Saini|Shop - 103-104, Super Bazaar, Station Road, Moradabad|244001|maxsmartgallery@gmail.com||Uttar Pradesh|Moradabad|28.8337572|78.77173| ||||||
https://edge.canon.co.in/service-networks|professional camcorder|Camera Collection Point|Canon|Limra Telecom and Computer|Mr Ghulam Ali|Limra Manzil, Garwar Road, Umarganj, Ballia|277001|limracomputer.ali@gmail.com||Uttar Pradesh|Ballia|25.7591956|84.138672| ||||||
https://edge.canon.co.in/service-networks|professional camcorder|Camera Collection Point|Canon|Galaxy Infotech|Mr. Dhanesh Prakash Bharadwaj|4/S-25F-1, SUPER MARKET, SANJAY PLACE|282001|galaxyagra@gmail.com||Uttar Pradesh|Agra|27.2010588|78.008623| ||||||
https://edge.canon.co.in/service-networks|professional camcorder|Camera Collection Point|Canon|Plus Computer Repairing Center|Mr. Sharoor Mohammad|SHOP NO.-9,CITY CENTER,JEEVAN SHAH TEERAHA|284002|Asc.jhansiplus.canon@gmail.com||Uttar Pradesh|Jhansi|25.4534825|78.569634| ||||||
https://edge.canon.co.in/service-networks|professional camcorder|Camera Collection Point|Canon|Computer Zone|Avinash Kumar Verma|5,RAIDOPUR,NEAR DURGA JI MANDIR|276001|avinash@computerzone.net.in||Uttar Pradesh|Azamgarh|26.0062767|83.193694| ||||||
https://edge.canon.co.in/service-networks|professional camcorder|Camera Collection Point|Canon|Vats Peripherals Services|Mr. Omkar Mishra|1st Floor, Jalkal Complex North|274001|vats.karjhan@gmail.com||Uttar Pradesh|Deoria|26.4981451|83.78586| |||8948366542|9455929328||
https://edge.canon.co.in/service-networks|professional camcorder|Camera Collection Point|Canon|Sun Infotech Solutions|Mr. Vicky / Bupesh|1st Floor 4/24 Sukhadia Shopping Center,Sri Ganganagar-335001|335001|suninfotech.sgnr@gmail.com||Rajasthan|SrigangaNagar|29.9089937|73.881276| |||9784696000|||
https://edge.canon.co.in/service-networks|professional camcorder|Camera Collection Point|Canon|Technocrats Lab|Mr. Avni Gupta|S-33Sector-2,M.P.Nagar, Bikaner-3334001|334001|avnibik@yahoo.co.in||Rajasthan|Bikaner|28.039872|73.296513| |||9829141940|||
https://edge.canon.co.in/service-networks|professional camcorder|Camera Collection Point|Canon|Shri Balaji Computer Peripherl|Surendra Kumar Surtaniya|Basement Hotel Kalinga Palace, Station Road, Barmer-344001, Rajasthan, India |344001|sbcp.barmer@gmail.com||Rajasthan|Barmer|25.746202|71.395402|2982|230483|||||
https://edge.canon.co.in/service-networks|professional camcorder|Authorised Service Franchise|Canon|Central Camera Services|Mr. Pankaj Sharma|Opposite metro pillar no 126,Near Shyam Nagar metro station,Sodala|302019|ccscanonjp@gmail.com||Rajasthan|Jaipur|26.8965933|75.770674| |||9214339947|||
https://edge.canon.co.in/service-networks|professional camcorder|Camera Collection Point|Canon|Kannu Computers|Mr. Ram Singh|Riddhi Plaza, First Floor, Shop No 3/2, Housing Board, Devipura|306401|kannucompali@gmail.com||Rajasthan|Sikar|25.793767|73.304414| |||9782855596|||
https://edge.canon.co.in/service-networks|professional camcorder|Camera Collection Point|Canon|Right Click|Mr. Imran|1-A, Chaugan Scheme, K.C. Complex, Near Lok Kala Mandal, Udaipur, Rajasthan-313001|313001|rightclickudr@gmail.com||Rajasthan|Udaipur|24.5944554|73.691711| |||9799277558|||
https://edge.canon.co.in/service-networks|professional camcorder|Camera Collection Point|Canon|Rajawat Computech|Mr. Ashish|Shree Agarsen Tower, 1A, Jai Complex, 1st Floor, Alwar, Rajasthan-301001|301001|rajawat.computech@gmail.com||Rajasthan|Alwar|27.5689489|76.608704| |||8955027736|||
https://edge.canon.co.in/service-networks|professional camcorder|Camera Collection Point|Canon|Shri S S Computer And Printers|Mr. Sunil|36/288; KESHAV KI PRATIMA; DESHWALI GALI; SARVESHWAR NAGAR; LOHAKHAN; AJMER; RAJASTHAN|305001|Shriscomputer4@gmail.com||Rajasthan|Ajmer|26.4817089|74.651311| |||7230990255|||
https://edge.canon.co.in/service-networks|professional camcorder|Camera Collection Point|Canon|Simplex Electronics|Mr. Rakesh|753; KHATRI BHAWAN; NEAR GEETA BHAWAN; UMAID HOSPITAL ROAD; SARDARPURA; JODHPUR-342003|342003|sccjod@gmail.com||Rajasthan|Jodhpur|26.2832313|73.00658| |||9314133177|||
https://edge.canon.co.in/service-networks|professional camcorder|Camera Collection Point|Canon|Global Service Center|Mr. Randhir|B-NARAYAN GATE; CIRCULAR RAOD; BHARATPUR; RAJASTHAN|321001|globalservicecenterbtp@gmail.com||Rajasthan|Bharatpur|27.2118614|77.496472| |||9269344405|||
https://edge.canon.co.in/service-networks|professional camcorder|Camera Collection Point|Canon|MAA IT Service|Mr. Swai|Maa Kripa Building, Near ESI Hospital No.1, PHED Office, Sub Registrar Office, Bhatwara, Jodhpur Road|306401|SWAISINGH5810@GMAIL.COM||Rajasthan|Pali|25.7921419|73.304546| |||9461145819|||
https://edge.canon.co.in/service-networks|professional camcorder|Camera Collection Point|Canon|Prachi Computers|Mr. Suresh|BALAJI KATLA; NEAR TONK BUS STAND; BAJARIA; SAWAI MADHOPUR-322001|322001|prachicomputerswm@gmail.com||Rajasthan|Sawai Madhopur|26.0177308|76.35297| |||9414346240|||
https://edge.canon.co.in/service-networks|professional camcorder|camera collection point|Canon|IT Campus|Mr Anantaya Sarkar|45/1 Khalui Bill Mathfirst Lane Near Omkarnath Ashram Burdwan -713101|713101|asccanon.bwn@gmail.com||West Bengal|Burdwan|23.5797663|87.291854| |||9434665543|||
https://edge.canon.co.in/service-networks|professional camcorder|camera collection point|Canon|Vision Edge Solution|Mr Dipankar Dutta|Vision Edge Solution, C/O Arijit Sarkar, RC-131, A.P.C Roy Sarani, Gnd Floor, GITANJALI Park, Bengal Ambuja, City Centre|713216|support.dgp@visionedge.co.in||West Bengal|Durgapur|23.5351722|87.303458| |||9883966770|||
https://edge.canon.co.in/service-networks|professional camcorder|camera collection point|Canon|Megha Associates|Mr Paras Choudhary|81/5; A.C Road Indraprastha; PO Khagra District Murshidabad|742103|megha.asso@gmail.com||West Bengal|Berhampore|24.1041317|88.255456| |||9476171593|||
https://edge.canon.co.in/service-networks|professional camcorder|Camera Collection Point|Canon|Micro Digital|Mr. Krishna Chandra Mondal|W. No. 9, 98, Mnk Road,Po Bharsalapara Birbhum,near Hanuman Mandir Rampurhat|731224|serv.rampurhat@gmail.com||West Bengal|Rampurhat|24.1802618|87.791583| |||9749250934|||
https://edge.canon.co.in/service-networks|professional camcorder|Camera Collection Point|Canon|Comtec|Mr. Partha Pratim Shau|Police Club Shopping Complex,Room No. FF 18,and 19, Library Road,Mednipur - 721101|721101|comtec12@rediffmail.com||West Bengal|Mednipur|22.4192966|87.324919| |||9434229905|||
https://edge.canon.co.in/service-networks|professional camcorder|Camera Collection Point|Canon|Das and Das Computer|Mr Partha Das|Subhas Pally Kanir More,P.O. Dist- Malda,Malda Town - 732101|732101|ddcmalda2003@rediffmail.com||West Bengal|Malda|25.0101195|88.134324| |||9434165982|||
https://edge.canon.co.in/service-networks|professional camcorder|Camera Collection Point|Canon|Unique Services|Mr Chittaranjan Naskar|15, West Lanes Bow Bazar,Krishnanagar - 741101 |741101|unique.servicek@gmail.com||West Bengal|Krishna nagar|23.3992401|88.490928| |||9831002357|||
https://edge.canon.co.in/service-networks|professional camcorder|Camera Collection Point|Canon|Joy enterprises|Mr Joy Majumdar|19, Mukherjee Para Lane, Serampore,Hoogly - 712201|712201|joyenterprise@rediffmail.com||West Bengal|Serampore|22.7555537|88.338624| |||9830348410|||
https://edge.canon.co.in/service-networks|professional camcorder|Camera Collection Point|Canon|Balaji Computers|Mr. Chandra Shekhar Singh|Nandlal Complex, Near SBSTC Depot,Purulia - 723101|723101|ascpurulia@gmail.com||West Bengal|Purulia|23.3318429|86.360484| |||9434105940|||
https://edge.canon.co.in/service-networks|professional camcorder|Authorized Service Franchise|Canon|The Peripheral Services|Mr Tribhuvan Prasad|03 M ,OM Complex,S. P. Verma Road|800001|cccpat1@gmail.com||Bihar|Patna|25.6115493|85.140036| |||9334117605|||
https://edge.canon.co.in/service-networks|professional camcorder|Camera Collection Point|Canon|The Peripheral Services|Mr Tribhuvan Prasad|03 M ,OM Complex,S. P. Verma Road|800001|cccpat1@gmail.com||Bihar|Patna|25.6115493|85.140036| |||9334117605|||
https://edge.canon.co.in/service-networks|professional camcorder|Authorized Service Franchise|Canon|Axiom Computers Pvt. Ltd.|Jyoti Prakash|11, Janpath, 1st floor, Satya Nagar|751007|cccbub@gmail.com||Orissa|Bhubaneswar|20.2801196|85.843918| |||8018618369|||
https://edge.canon.co.in/service-networks|professional camcorder|Camera Collection Point|Canon|Axiom Computers Pvt. Ltd.|Jyoti Prakash|11, Janpath, 1st floor, Satya Nagar|751007|cccbub@gmail.com||Orissa|Bhubaneswar|20.2801196|85.843918| |||8018618369|||
https://edge.canon.co.in/service-networks|professional camcorder|Camera Collection Point|Canon|Visual Computers|Mr. Santosh Kumar|Hatibandha Street|760001|visual_computers@rediffmail.com||Orissa|Berhampore|19.3098962|84.798765| |||9437609558|||
https://edge.canon.co.in/service-networks|professional camcorder|Camera Collection Point|Canon|Tech Exchange|Mr. Ratikanta Giri|Plot No. 233, Saheed Nagar|751007|canon_tech@rediffmail.com||Orissa|Bhubaneswar|20.2905697|85.847697| |||9937878932|||
https://edge.canon.co.in/service-networks|professional camcorder|Camera Collection Point|Canon|Prakash Informatics|Mr. Mohd. Akhtar|1st Lane,JM Colony,Budharaja|768004|pratech100@yahoo.co.in||Orissa|Sambalpur|21.4812405|83.98353| |||9853375431|||
https://edge.canon.co.in/service-networks|professional camcorder|Camera Collection Point|Canon|Intelligent Systems|Mr. Ritesh Kumar Sarangi|DIC Office Square, Ground Floor, OT Road, Anghar Gadia|756001|service@techinteli.com||Orissa|Balasore(Baleswar)|21.4882268|86.917227| |||9337184849|||
https://edge.canon.co.in/service-networks|professional camcorder|Camera Collection Point|Canon|Diligent Solutions|Mr. Sourav Biswas|303, 3rd Floor,Yashkamal Complex, Bistupur|831001|diligentsolutionsjsr@gmail.com||Jharkhand|Jamshedpur|22.7956904|86.184448| |||9334804257|||
https://edge.canon.co.in/service-networks|professional camcorder|Camera Collection Point|Canon|Loknath Infotech|Mr. Pradosh Pati|KMBM Road; Baripada|757001|loknathinfotech@yahoo.co.in||Orissa|Baripada|21.9359026|86.72368| |||9937382712|||
https://edge.canon.co.in/service-networks|professional camcorder|Camera Collection Point|Canon|Savvy Tech Solutions|Mr. Sarwar|Manjhiyao Road, Near Bazar Samiti Back Side of Railway Crossing, Garhwa|834001|canonservicegarhwa@gmail.com||Jharkhand|Garhwa|24.1687198|83.807355| |||7004223909|||
https://edge.canon.co.in/service-networks|professional camcorder|Camera Collection Point|Canon|Auto Machine|Mr. Ramanand Chourasia|Court Compound; Chuha Bagan|814101|pappu50216@gmail.com||Jharkhand|Dumka|24.2537646|87.236657| |||9431150216|||
https://edge.canon.co.in/service-networks|professional camcorder|Camera Collection Point|Canon|Swarnrekha|Mr. Sushil Gupta|BNS Building; Near SBI ATM; Main Road; Hinoo|834002|swarnrekha.canon01@gmail.com||Jharkhand|Ranchi|23.331498|85.316936| |||8210471381|||
https://edge.canon.co.in/service-networks|professional camcorder|Camera Collection Point|Canon|Aditya Info Solution|Mr. Sandeep Sinha|Pugmil Road; 1st Floor; H. No. 02T; Plot No. 672|825301|sandeepsinha333@gmail.com||Jharkhand|Hazaribagh|24.0082409|85.349799| |||9973291507|||
https://edge.canon.co.in/service-networks|professional camcorder|Camera Collection Point|Canon|All Solutions|Mr. Kamlesh Kumar|3rd Floor; Devraj Complex; Adarsh Vihar; Dhansar|828106|allsolution6431@gmail.com||Jharkhand|Dhanbad|23.7768804|86.414934| |||9470508909|||
https://edge.canon.co.in/service-networks|professional camcorder|Authorized Service Franchise|Canon|Techshop Services|Mr. Anjan Bhattacharjee|House No 66; Rajagarh Main Road|781007|techshopservices.canon@gmail.com||Assam|Guwahati|26.1681856|91.769623| |||8473911463|9859945094|9435145094|
https://edge.canon.co.in/service-networks|professional camcorder|Camera Collection Point|Canon|System & Solutions|Mr. Manna Dey|Durga Bari Road, UMA Complex,Opp. Choudhary Shopping Complex, Barpeta Road    |781315|system.solution6600@gmail.com||Assam|Barpeta Road|26.4984428|90.969895| |||9435736600|||
https://edge.canon.co.in/service-networks|professional camcorder|Camera Collection Point|Canon|Computer Genesis|Mr. Pradeep Jain|Assian Shoping Complex, N.L.Road, Central Plaza, Dimapur,Nagaland|797112|cgdimapur@gmail.com||Nagaland|Dimapur|25.908885|93.72299| |||9436004228|||
https://edge.canon.co.in/service-networks|professional camcorder|Camera Collection Point|Canon|Techshop Services|Mr. Anjan Bhattacharjee|House No 66; Rajagarh Main Road|781007|techshopservices.canon@gmail.com||Assam|Guwahati|26.1681856|91.769623| |||8473911463|9859945094|9435145094|
https://edge.canon.co.in/service-networks|professional camcorder|Camera Collection Point|Canon|Renan System and Service|Mr. Mehadi Alam|DARBAR ROAD,WARD NO - 3,NEAR TWINKLE STAR ACADEMY, SHIVSAGAR|785640|mehadialam2@gmail.com||Assam|Sibsagar|26.9856628|94.625671| |||9954303139|||
https://edge.canon.co.in/service-networks|professional camcorder|Camera Collection Point|Canon|Nilima Enterprise|Mr. Jayanta Chodhery|Ronaldsay Road ; Opp Court|799001|nilimaent@hotmail.com||Tripura|Agartala|23.8352449|91.270103| |||9436125328|||
https://edge.canon.co.in/service-networks|professional camcorder|Camera Collection Point|Canon|Bora Communication|Mr. Gonesh Bora|Jail Road, W. No. 8,North Lakhimpur|787001|goneshbora@yahoo.com||Assam|North Lakimpur|27.2371697|94.100989| |||9435388046|||
https://edge.canon.co.in/service-networks|professional camcorder|Camera Collection Point|Canon|Digiworld|Santanu Kumar Bora|New Mission Market,Dr. Huze Road|782001|ndw.nagaon@gmail.com||Assam|Nagaon|26.3506237|92.685609| |||9706114344|||
https://edge.canon.co.in/service-networks|professional camcorder|Camera Collection Point|Canon|Tech Max|Mr. Prasanta Das|G.D Complex N.T Road,Opposite Bank Of Baroda|784001|prasant_d27@yahoo.com||Assam|Tezpur|26.652849|92.792559| |||9864246579|||
https://edge.canon.co.in/service-networks|professional camcorder|Camera Collection Point|Canon|IT Online|Mr. Mamon Sharma|N.S.Avenue; Hospital Road|788005|itonline.silchar@gmail.com||Assam|Silchar|24.8225398|92.799127| |||9435071302|||
https://edge.canon.co.in/service-networks|professional camcorder|Camera Collection Point|Canon|Eureka Trading|Mr. Pawan Sharma|SHOP NO - 87, MUDA,POLICE BAZAR|793001|eurekatrading_2006@yahoo.com||Meghalaya|Shillong|25.5764966|91.882058| |||9863067469|||
https://edge.canon.co.in/service-networks|professional camcorder|Camera Collection Point|Canon|Mangall Infotech endover|Mr. Jeevan Chandra|Pona bazar|795001|amt.mnp@gmail.com||Manipur|Imphal|24.8048485|93.934614| |||9402882867|||
https://edge.canon.co.in/service-networks|professional camcorder|Authorized Service Centre|Canon|Micro Lab|Mr Sabyasachi Bagchi|D-14; Bijoydeep Building, Siliguri, Pin-734001|734001|mlabslg@gmail.com||West Bengal|Siliguri|26.7198262|88.425962| |||9126672082|||
https://edge.canon.co.in/service-networks|professional camcorder|authorized service center|Canon|Printer Bazar|Mr Tanmoy Saha|508/630 Uttar Arabindra Nagar, Alipuduar court|736122|printerbazar.coochbehar@gmail.com||West Bengal|Alipurduar|26.3305408|89.451171| ||||||
https://edge.canon.co.in/service-networks|professional camcorder|Camera Collection Point|Canon|Orbit Enterprises|Mr. U.Murugan|# 5 Palace Towers ,Cherry Road, |636001|orbit_slm@hotmail.com||Tamil Nadu|Salem|11.658429|78.15858| |||9344422199|||
https://edge.canon.co.in/service-networks|professional camcorder|Camera Collection Point|Canon|Magnanim Systems|Mr. Ramesh|25, (First Floor),Needarajappaiyar Street|605001|service@magnanimsystem.in||Pondicherry|Pondicherry|11.9338556|79.829604| |||9894732828|||
https://edge.canon.co.in/service-networks|professional camcorder|Camera Collection Point|Canon|JK PRINTERS|Mr. Ravi|232/A,THIRUCHENDUR ROAD,NEAR HOTEL ANNAPOORNA,Palayamkottai|627002|jkprinters111@gmail.com||Tamil Nadu|Tirunelveli|8.7268333|77.735759| |||9843189111|||
https://edge.canon.co.in/service-networks|professional camcorder|Camera Collection Point|Canon|Aim Enterprises|M.Prabaharan|No 112 Opp Bjp Bhawan,Shop No 3 M.G Road Middle Point|744101|info@aimenterprises.net||Andaman and Nicobar Islands|Port Blair|11.6687448|92.7363| |||9434282223|||
https://edge.canon.co.in/service-networks|professional camcorder|Camera Collection Point|Canon|Vel Support and Systems|Mr. Shiva Kumar|No. 9 Alagesan Road, Vedachalam Nagar,Chengalpattu|603001|velservice2010@gmail.com||Tamil Nadu|Chengalpet|12.6872869|79.98228| |||9865180110|||
https://edge.canon.co.in/service-networks|professional camcorder|Camera Collection Point|Canon|JK Printers|Mr.B.Ravi|173/1, Vakkil New Street, Simmakkal|625001|jkprintersmdu@gmail.com||Tamil Nadu|Madurai|9.924462|78.120457| |||9843589111|||
https://edge.canon.co.in/service-networks|professional camcorder|camera collection point|Canon|Terabyte Technologies|Mr.K.Suresh Kumar|D 46 8th Cross - West, Thillai Nagar|620018|terabytetrichy@gmail.com||Tamil Nadu|Trichy|10.822428|78.685079| |||9842476101|||
https://edge.canon.co.in/service-networks|professional camcorder|camera collection point|Canon|Inspire Technologies|Mr. Venkatesh V|799,M.I.M,Trade Centre Complex, F7,60 Feet Road,Kumbakonam,Thanjavur|612001|inspire_technologies@yahoo.com||Tamil Nadu|Kumbakonam|10.9586432|79.3767456| |||9842654400|||
https://edge.canon.co.in/service-networks|professional camcorder|camera collection point|Canon|Teknix|Mr. Girish|Kottamukku,opp- ruby industries,kollam|691013|mail@teknix.in||Kerala|Kollam|8.8881|76.5789| |||9447342015|||
https://edge.canon.co.in/service-networks|professional camcorder|Camera Collection Point|Canon|Opera Systems|Mr. Subair .P.A|13/789/38-1,Dee Pee Plaza ,Kokkali,thrissur|680021|operasystems@gmail.com||Kerala|Thrissur|10.5136646|76.209826| |||9846423034|||
https://edge.canon.co.in/service-networks|professional camcorder|Camera Collection Point|Canon|Ascent Info Systems|Mr. Anil|16/630(14), R.K. Building, Kunnathurmedu,palakkad|678013|anilwarriers@yahoo.com||Kerala|Palakkad|10.768312|76.666127| |||9846036935|||
https://edge.canon.co.in/service-networks|professional camcorder|Camera Collection Point|Canon|IT Marketing Group|Mr. Vikas|19/553G,Eraythan complex, Manjeri Road, Malapuram|676505|itmgmlpm@rediff.com||Kerala|Malapuram|11.0551141|76.091915| |||9447078675|||
https://edge.canon.co.in/service-networks|professional camcorder|Camera Collection Point|Canon|Insight Printer Care|Mr.Biju Kumar|NADUKUDIYIL PLAZA,267-B7,B8,1ST FLOOR,MUDAVOOR,MUVATTUPUZHA|686669|insightprintercare@gmail.com||Kerala|Muvatupuzha|9.9965612|76.571863| |||9847040552|||
https://edge.canon.co.in/service-networks|professional camcorder|Camera Collection Point|Canon|Esskay Technology|Mr. Vijaynath G|No 248 B.C Mansion 1St Floor, St.Paul Convent Road P.J Extension|577002|esskaydvg@gmail.com||Karnataka|Davangere|14.4617306|75.917096| |||9880765334|||
https://edge.canon.co.in/service-networks|professional camcorder|Camera Collection Point|Canon|Dot Com|Mr. Kumar|#280/1, I floor, 15th main, 6th cross,Opp.to Kuvempu School, Kamakshi hospital Road,Saraswathi puram|570009|dotcommys@yahoo.co.in||Karnataka|Mysore|12.2995553|76.627319| |||9845111623|||
https://edge.canon.co.in/service-networks|professional camcorder|Camera Collection Point|Canon|Navneeth Systems|Mr. Shyam Bhat|1st Floor, GM Sharanappa Building, J.C.Nagar, Hubli|580020|support@navaneet.co.in||Karnataka|Hubli|15.3499231|75.143706| |||9902459999|||
https://edge.canon.co.in/service-networks|professional camcorder|Camera Collection Point|Canon|Standard Technologies|Mr. Praveen|1st Floor Sarvamangala Bldg.,Valencia, Mangalore|575002|praveen_chandm@yahoo.com||Karnataka|Mangalore|12.8642068|74.857959| |||9845137943|||
https://edge.canon.co.in/service-networks|professional camcorder|Camera Collection Point|Canon|Sunrise Computers|Mr. Shashikumar|1st Floor, Opp to Gurukula Hostel,Behind Suniana Opticals, B.H Road|572102|sunrisetmk@yahoo.co.in||Karnataka|Tumkur|13.339058|77.113386| |||9845354142|||
https://edge.canon.co.in/service-networks|professional camcorder|Camera Collection Point|Canon|Millennium Infotech|Mr. Basavaraj|Prerana, 5th Cross Road. A.N.K Road,Venkatesh Nagar|577201|millennium_smg2002@yahoo.co.in||Karnataka|Shimoga|13.9411242|75.570987| |||9845138278|||
https://edge.canon.co.in/service-networks|professional camcorder|Camera Collection Point|Canon|Vinayaka Computers|Mr.  Avinash|MS Tower Celler, Opp. Bus Depot, Nirmal|504106|vinayakacomputers@hotmail.com||Telangana|Nirmal|19.0895379|78.347695| |||9908033332|||
https://edge.canon.co.in/service-networks|professional camcorder|Camera Collection Point|Canon|Tele computer solutions|Mr.Kiran Kumar|# 11-3-194, 1st Floor,Beside Baburao Petrol Bunk, Balaji Nagar|507002|tcs_kmm@yahoo.com||TELANGANA|Khammam|17.250568|80.144785| |||9440704303|||
https://edge.canon.co.in/service-networks|professional camcorder|Camera Collection Point|Canon|S.L. Computers And Communications|Mr. Narayanamurthy|A6 DEVI Appartment, Subhadra Arcade, Bhanugudi junction, kakinada|533001|narayanamurthyp@yahoo.com||Andhra Pradesh|Kakinada|16.9715112|82.235976| |||9848361613|||
https://edge.canon.co.in/service-networks|professional camcorder|Camera Collection Point|Canon|Sri Sai Technologies|Mr. Sai Kumar|G1, Sri Balaji towers, Beside Reddy seva samiti ladies hostel, Rajiv park road, kadapa|516001|srisaitechnologies.kdp@gmail.com||Andhra Pradesh|Kadapa|14.4621493|78.827161| |||9440521070|||
https://edge.canon.co.in/service-networks|professional camcorder|camera collection point|Canon|Sai Systems And Communications|Mr. Arun|Shop.No.8, Co-Operative Bank Complex, Near Gandhi Statue, Grand Trunk Road|524001|saisysts@yahoo.com||Andhra Pradesh|Nellore|14.4520746|79.9842| |||9440278775|||
https://edge.canon.co.in/service-networks|professional camcorder|Camera Collection Point|Canon|Microlion Computers|Mr. Saradhi/ Satish|Venkta Balaji Towersopp Modern Academy College,Jemmichattu Centre|520010|microlion.canon@gmail.com||Andhra Pradesh|Vijaywada|16.506428|80.644312| |||9885772233|||
https://edge.canon.co.in/service-networks|professional camcorder|Camera Collection Point|Canon|Best technologies|Mr. Durgaprasad|Door no 6/3/194, Near neelagiri college, Ramgiri, NALGONDA |508001|besttechnologies.nlg@gmail.com||Telangana|Nalgonda|17.061346|79.272258| |||8341746322|||
https://edge.canon.co.in/service-networks|professional camcorder|Camera Collection Point|Canon|Centaur Computer Technology Pvt Ltd|Pooja/ Anirban|Centaur Computer Technology Pvt. Ltd.F-10.Jairam complex,Rua-De-Ourem.Neuginagar,Panjim.Goa -403001|403001|cccgoa2@gmail.com; anirban@centaurcomputer.com||Goa|Panjim|15.490423|73.832375| |||9225902350|||
https://edge.canon.co.in/service-networks|professional camcorder|camera collection point|Canon|Satkar Infotech|Mr. Anil Modh|102, 1st Floor, Cosy Complex, Dhundhiyawadi, Dhundhiyawadi Road, Palanpur|385001|anilmodh@rediffmail.com||Gujarat|Palanpur|24.1747252|72.42768| |||9824134340|8140774039||
https://edge.canon.co.in/service-networks|professional camcorder|Camera Collection Point|Canon|Baundia Infotech|Mr. Ankul Agrawal|Richariya Complex, Semariya Chowk, Rewa Road, Satna|485001|baundiastn@gmail.com||Madhya Pradesh|Satna|24.2198207|76.602278| |||9425470787|||
https://edge.canon.co.in/service-networks|professional camcorder|Camera Collection Point|Canon|Global Systems|Nitin Tiwari|First Floor, Yadav Complex, In front of Cantt Shopping Mall, Civil Lines, Sagar|220572|globalsystems.sagar@gmail.com||Madhya Pradesh|Sagar|23.8416667|78.762778| | ||8982491337|9407231937||
https://edge.canon.co.in/service-networks|professional camcorder|Camera Collection Point|Canon|PC Infotech Solutions|Mr. Chetan Kumbhani & Mr. Sameer|SHOP NO. 19, 1ST FLOOR, SHIKHAR COMPLEX, JAYSHREE ROAD|362001|pcis.jnd@gmail.com||Gujarat|Junagadh|21.5176033|70.458984| |||9824028910|||
https://edge.canon.co.in/service-networks|professional camcorder|Camera Collection Point|Canon|Yes Electonics Bharuch|Mr. Nehal Patel/Mr. Vijay Patel|A 31 Mirambica Society B4 Sony World Room,Dahej By Pass Road Village- Bholav(Part)Taluka - Bharuch Dist. Bharuch|392001|cccbha@gmail.com||Gujarat|Bharuch|21.7218502|72.989122| |||9714993915|||
https://edge.canon.co.in/service-networks|professional camcorder|Camera Collection Point|Canon|Prime Infotech|Mr. Rakesh Kumar Patel/Mr. Paresh|2nd Floor Surya Complex,St Workshop Road|384002|paresh_zeri@yahoo.com paresh.kapadiya@yahoo.com||Gujarat|Mehsana|23.5950398|72.384786| |||9825637007|||
https://edge.canon.co.in/service-networks|professional camcorder|Camera Collection Point|Canon|Yes Electronics|Mr. Vijay Patel|5 Anmol Plaza Opp. Macdonalds Restaurant,Old Padra Road|390020|cccbar@gmail.com||Gujarat|Baroda|22.2969426|73.165071| |||9824077996|||
https://edge.canon.co.in/service-networks|professional camcorder|Authorized Service Franchise|Canon|Bhavi Electronics|Mr. Vipul Joshi|101, Shivalik-10, Opp. SBI Zonal Office,S. M. Road, Ambawadi|380015|cccahm@gmail.com||Gujarat|Ahmedabad|23.0221559|72.547271| |||9824263285|||
https://edge.canon.co.in/service-networks|professional camcorder|Authorized Service Franchise|Canon|Central Camera Repairing|Mr. Vishal Sharma|MZ-40 YASHWANT PLAZA, OPP. RAILWAY STATION, Indore|452001|centralcameraind@rediffmail.com;centralcameraind@gmail.com||Madhya Pradesh|Indore|22.7185612|75.869454| |||9826634353|||
https://edge.canon.co.in/service-networks|professional camcorder|camera collection point|Canon|Sai Services|Mr. Kapil Vyas|12/486,Mitra Niwas Road,Ratlam,Near Rangoli Garden|457001|sairtm@gmail.com||Madhya Pradesh|Ratlam|23.3282909|75.0469423| |||9302510165|||
https://edge.canon.co.in/service-networks|professional camcorder|Camera Collection Point|Canon|Integrated Solutions|Mr. Chaitanya Korde|1, C.O. Apartment, Opp S.C.A School,Near 4th Bridge Napier Town,|482001|isojbp@gmail.com||Madhya Pradesh|Jabalpur|23.1577471|79.937217| |||9826141405|||
https://edge.canon.co.in/service-networks|professional camcorder|Camera Collection Point|Canon|P.C. Infotech|Anil P Vaniya|Ward 3A,Plot No 427,Vandana Circle Ram Buag Road Adipur Gandhidham Kutchh|370205|pcinfotech.ad@gmail.com||Gujarat|Gandhidham|23.0707028|70.087529| |||9925013709|||
https://edge.canon.co.in/service-networks|professional camcorder|Camera Collection Point|Canon|Care Enterprise|Mr. Jagdish Navadia| 203, 2nd Floor, 203, Akashdeep Complex, Nr. Bahubali Complex, Kalanala, Bhavnagar|364001|icareprint@rediffmail.com||Gujarat|Bhavnagar|21.77|72.1426| |||9824295158|||
https://edge.canon.co.in/service-networks|professional camcorder|Camera Collection Point|Canon|Task Force Computers Pvt.Ltd.|Mr. Pankaj Gosain / Mrs. Kavita Gosain|M-21 Madhav Nagar|474002|kavita_gosain@yahoo.com, info.taskforce@gmail.com||Madhya Pradesh|Gwalior|26.202462|78.177636| |||9826307755|||
https://edge.canon.co.in/service-networks|professional camcorder|Camera Collection Point|Canon|Jain Computer Gallery|Mr. Ashish Jain|M-13, Mansarover Complex, Bus Stand, Madhya Pradesh-480001|480001|jaincomputerchw@gmail.com||Madhya Pradesh|Chhindwara|22.0582469|78.938256| |||9425146607|9424600000||
https://edge.canon.co.in/service-networks|professional camcorder|Camera Collection Point|Canon|Integrated Computers|Mr. Rajeev Chapra|43, Sarvodaya Market, Opp. Hotel Natraj, Madhya Pradesh-484001|484001|rchapra@rediffmail.com||Madhya Pradesh|Shahdol|23.2952398|81.359092| |||9425180717|||
https://edge.canon.co.in/service-networks|professional camcorder|camera collection point|Canon|PC Infotech Solutions|MR. NIKUNJ PATEL / MR. SAMEER HINGARAJIYA|Shop No. F/5, Platinum Plaza, Garden Road|389001|pcis.godhra@gmail.com||Gujarat|Godhra|22.7788745|73.618243| |||9824028910|||
https://edge.canon.co.in/service-networks|professional camcorder|Camera Collection Point|Canon|PC Infotech Solutions|Mr. Samir Hingarajiya/ Mr. Chetan Kumbhani|314,Jolly Plaza, Athwa Gate, Surat|395001|cccsur@gmail.com||Gujarat|Surat|21.1865144|72.810919| |||9824751549|9824751690|9822204910|
https://edge.canon.co.in/service-networks|professional camcorder|Camera Collection Point|Canon|Mascot Electronics|Mr. Hitesh J. Vandra|206, Golden Space Complex,Sardar Nagar Main Road, Opp. ABC Medical Store, Rajkot|360001|mascot_electronics@yahoo.com||Gujarat|Rajkot|22.2927|70.791337| |||9824211350|||
https://edge.canon.co.in/service-networks|professional camcorder|authorized service franchise|Canon|Power Care Systems|Mr. Sarjerao Chavan|"234,Parvati,Saidarshan Society,Shop No. ""E"" Near Brahmachaitanya Ashram."|411009|powercarepune@gmail.com||Maharashtra|Pune|18.4975432|73.852162| |||9923139941|||
https://edge.canon.co.in/service-networks|professional camcorder|Camera Collection Point|Canon|K-Link Computers|Mr. Sarwajit Bedi|Near Indu Chowk, Magarpara Road, Bilaspur, Chhattisgarh, Pin- 495001|495001|klinkcomputers@gmail.com||Chhattisgarh|Bilaspur|22.0800602|82.142561| |||9755535553|||
https://edge.canon.co.in/service-networks|professional camcorder|Camera Collection Point|Canon|Auto Serve|Yogesh Deodhar|Shop No.5 and 6, Amruta Apt., Tilak Lane, Ratnagiri|415612|autoservertn@yahoo.co.in||Maharashtra|Ratnagiri|16.9969447|73.290802| ||||||
https://edge.canon.co.in/service-networks|professional camcorder|Camera Collection Point|Canon|Phoenix Services Pimpri|Mr. Nitin Patil|Shop No. 67,Near Akurdi Chowk Pune|411035|cccpcmc@gmail.com||Maharashtra|Pune-Pimpri|18.6501382|73.785486| |||9049009524|||
https://edge.canon.co.in/service-networks|professional camcorder|camera collection point|Canon|Vivek Infotech|Mr. Chetan Kumbhani|Shop no. 31, Gurusai Apartment, Shyam Talkies Complex, Nanded-431601|431601|vivek.nanded1@gmail.com||Maharashtra|Nanded|19.1556041|77.310709| |||9552501811|||
https://edge.canon.co.in/service-networks|professional camcorder|Camera Collection Point|Canon|Quality Office Equipments|Mr. Arun Kadam|04 Golden Palace Opp. DBJ College|415605|quality_canon@rediffmail.com||Maharashtra|Chiplun|17.5232115|73.526038| |||9922961445|||
https://edge.canon.co.in/service-networks|professional camcorder|Camera Collection Point|Canon|Satyam Computers Gallery|Shrikant Gandhi|Shop No.5 Swastik Chambers,Savedi Naka,Savedi|414003|ascanr11@gmail.com||Maharashtra|Ahmednagar|19.1279725|74.728993| |||9423160126|||
https://edge.canon.co.in/service-networks|professional camcorder|Camera Collection Point|Canon|Printech Multisoultions|Mr. Shazad Akhtar|F - 08, 1ST FLOOR , VITTHAL APARTMENTS, ABHYANKAR ROAD, DHANTOLI, NAGPUR – 440012|440012|cccnag@gmail.com||Maharashtra|Nagpur|21.1378302|79.082889| |||9370322567|||
https://edge.canon.co.in/service-networks|professional camcorder|Camera Collection Point|Canon|Delta Services|Mahesh Kamble|Opp. Andhra Bank, Near Mahesh Tailer, ,Akkalkot Road, Water Tank|413005|maheshgoa@yahoo.com||Maharashtra|Solapur|17.6660291|75.951152| |||9922159922|||
https://edge.canon.co.in/service-networks|professional camcorder|Camera Collection Point|Canon|King Computer|Mr. Kailash Shah|204 Kh, Ram Krushi Bungalow, opp Tukaram Vidalaya, New Shahpuri, Behind Hotel Tourist|416003|kailaskshah@gmail.com||Maharashtra|Kohlapur|16.7050449|74.244362| |||9373650728|||
https://edge.canon.co.in/service-networks|professional camcorder|Camera Collection Point|Canon|Ashajyoti Computers|Mr. Manish A. Agrawal|20, Ground Floor,Raka Mall,Near Jai Stambh|444601|ashajyoti@rediffmail.com||Maharashtra|Amravati|20.9307563|77.754772| |||7507335334|||
https://edge.canon.co.in/service-networks|professional camcorder|Camera Collection Point|Canon|Mobile Computers|Mitesh C Shah|Krushna Kunj Station Road,|431401|prbmobile@gmail.com||Maharashtra|Parbhani|19.2599613|76.774014| |||9823127222|||
https://edge.canon.co.in/service-networks|professional camcorder|camera collection point|Canon|Vivek Infotech|Mr. Chirag Patoliya|Plot no 28,, Devkinandan Shopping complex, Nr.Sharma mangal karyalaya, Deepali Nagar, Mumbai Naka|422009|vivek.nashik@gmail.com||Maharashtra|Nasik|19.9811159|73.7822762| |||9552501814|||
https://edge.canon.co.in/service-networks|professional camcorder|Camera Collection Point|Canon|Visual Communication Centre|Mr. John Velayudhan|Shop No 15; 1st Floor; Municipal Shopping Complex; Gandhi Chowk; Latur - 413512|413512|johnv@visuallatur.com||Maharashtra|Latur|18.399326|76.577162| |||9890600033|||
https://edge.canon.co.in/service-networks|professional camcorder|Camera Collection Point|Canon|Delite Computers|Mr. Pradeep B. Kharat|DR. LAULKAR COMPLEX; SUBHASH ROAD; BEED - 431122|431122|delitecomp2002@gmail.com||Maharashtra|Beed|18.9939023|75.755591| |||9404030040|||
https://edge.canon.co.in/service-networks|professional camcorder|Camera Collection Point|Canon|King Computer Services|Mr. Sanjay Singh|C 3/A, 2nd Floor, Anuvrat Plaza, Phool Chowk, Nayapara Road, Raipur-492001|492001|sanjay.kcs@hotmail.com||Chhattisgarh|Raipur|21.2422818|81.633669| |||9302507090|||
https://edge.canon.co.in/service-networks|professional camcorder|Authorized Service Centre|Canon|Camera Service Centre|Mrs. Latha Kamalesh|No 6/1 & 6/2, R.K Mutt Road, Mylapore|600004|canon.asfchennai@gmail.com||Tamil Nadu|Chennai|13.0350806|80.268023| |||9380038109|||
https://edge.canon.co.in/service-networks|professional camcorder|Authorized Service Franchise|Canon|Ashoka Timetronics|Mr. A.Prem Kumar|4-1-354/1/2, Opp- Reddy Hostel, Hotel Jaya International Lane, Abids|500001|asfhyd@gmail.com||Telangana|Hyderabad|17.3881525|78.478349| |||9949378867|||
https://edge.canon.co.in/service-networks|professional camcorder|Authorized Service Centre|Canon|Prachi Infotech|Mr. Prakash K Ingle|In Front oF Santoshi  Mata mandir 2nd Floor ,Jay Plaza behinde Nisarg Plaza Near Sindhicate Bank.|444001|prachiinfoakl@gmail.com||Maharashtra|Akola|20.714406|77.000796| |||9158687568|||
https://edge.canon.co.in/service-networks|professional camcorder|camera collection point|Canon|Digitech Imaging India|Mr. Shashank Srivastava|Shop No.-3, First Floor, Shri Hari Tower, 4A Meera Bai Marg, Hazratganj, Lucknow|226001|ccclko@gmail.com||Uttar Pradesh|Lucknow|26.849657|80.950201| |||8127477771|||
https://edge.canon.co.in/service-networks|professional camcorder|Camera Collection Point|Canon|Digital Photosystem|Mr. Arun Kumar|Canon Image Square C-404/2, RAMPHAL CHOWNK, SEC-7, DWARKA|110075|canonsales@digitalphotosystem.in||Delhi/NCR|Delhi|28.5852201|77.071185| |||9711443127|||
https://edge.canon.co.in/service-networks|professional camcorder|Authorized Service Centre|Canon|Hardik International|Mr. Suresh Tiwari|Trh Building Near gas office Tehsil road Bageshwar|263642|hardikinternational001@gmail.com||Uttarakhand|Bageshwar|29.8323679|79.77197| |||9410111554|||
https://edge.canon.co.in/service-networks|professional camcorder|Camera Collection Point|Canon|Reliable Systems|Mr Ramesh Chand|Near Old Bus Stand Rampur Himachal Pradesh|172001|rsr_rampur@rediffmail.com||Himachal Pradesh|Rampur|31.4540814|77.649138| |||9418051795|||
https://edge.canon.co.in/service-networks|professional camcorder|Authorized Service Centre|Canon|Netcom Computers|Mr Sanjeev Kumar|NEAR NEW BUS STAND VPO KANGRA TEH DISTT KANGRA HIMACHAL PRADESH-176001|176001|netcomkangra@rediffmail.com||Himachal Pradesh|Kangra|32.1102157|76.278162| |||9418019816|||
https://edge.canon.co.in/service-networks|professional camcorder|Camera Collection Point|Canon|Netcom Computers|Mr Sanjeev Kumar|NEAR NEW BUS STAND VPO KANGRA TEH DISTT KANGRA HIMACHAL PRADESH-176001|176001|netcomkangra@rediffmail.com||Himachal Pradesh|Kangra|32.1102157|76.278162| |||9418019816|||
https://edge.canon.co.in/service-networks|professional camcorder|Camera Collection Point|Canon|Image Tech Systems|Mr Deepak Kaushal|Shivam Shopping Complex Opp State Bank of Patiala Shahpur Chowk Pathankot Punjab|145001|its_estudio163@yahoo.com||Punjab|Pathankot|32.2800203|75.653471| |||9888618145|||
https://edge.canon.co.in/service-networks|professional camcorder|camera collection point|Canon|City Computers|Mr Sukhvain|Gali Jangra Photo Lemination Surkhab Chowk Sirsa Haryana|125055|citycomputerssirsa@gmail.com||Haryana|Sirsa|29.5323008|75.035141| |||9812283085|||
https://edge.canon.co.in/service-networks|professional camcorder|Authorized Service Centre|Canon|Citizen Computers|Mr sumit Vats|215 near Canara Bank Bathinda Punjab|151001|citizenbti@gmail.com||Punjab|Bathinda|30.2265972|74.945501| |||9872853855|||
https://edge.canon.co.in/service-networks|professional camcorder|Camera Collection Point|Canon|Citizen Computers|Mr sumit Vats|215 near Canara Bank Bathinda Punjab|151001|citizenbti@gmail.com||Punjab|Bathinda|30.2265972|74.945501| |||9872853855|||
https://edge.canon.co.in/service-networks|professional camcorder|Camera Collection Point|Canon|UC Infosystems|Mr James Lakra|S-47 2nd Floor  Metropolitian Mall, Mg Road Gurugram|122002|cis@ucinfosystems.com||Haryana|Gurgaon|28.478914|77.081671| ||||||
https://edge.canon.co.in/service-networks|professional camcorder|Camera Collection Point|Canon|Compro Computers|Mr Ajit|Flat-B 2nd Floor, South Patel Nagar Market|110008|care@compro.co.in||Delhi/NCR|Delhi|28.6439997|77.170025| |||9213999533|||
https://edge.canon.co.in/service-networks|professional camcorder|Camera Collection Point|Canon|M/S Wintech Services|Mr. Sagar|Ground Floor, CTS No4360/B, Opposite to Maruti Mangal Karyalaya,Chavat Galli, Belagavi (Belgaum)|590001|wintech1415@gmail.com||Karnataka|Belagavi(Belgaum)|15.8657439|74.515613| |||9632703737|8314201415||
https://edge.canon.co.in/service-networks|professional camcorder|Camera Collection Point|Canon|J.J.Computers And Printers|Mr. Navejeevan Tiwari|Raj Palace; 1st Floor; Azad Nagar Chowk; Bhilwara; Rajasthan-311001|311001|jjcomputerbhw@gmail.com||Rajasthan|Bhilwara|25.341796|74.622542| |||8619617241|||
https://edge.canon.co.in/service-networks|professional camcorder|Camera Collection Point|Canon|Mars Services|Mr. Vinay Singh|744/6, Mohalla-chaiyabari, Near Kotwali Road, Basti |272001|g.marsservices@gmail.com||Uttar Pradesh|Basti|26.7998594|82.752822| |||7565943200|||
https://edge.canon.co.in/service-networks|professional camcorder|Damini Computer Lab|Canon|Camera Collection Point|Mr. Shailendra Pal , Mr. Monit Pal|Shop No.-5, 2nd Floor, Novelty Plaza, 48 Civil Lines Bareilly|243001|daminicomputerlab@gmail.com||Uttar Pradesh|Bareilly|28.357783|79.417449| |||9359105473|9319603339||
https://edge.canon.co.in/service-networks|professional camcorder|Camera Collection Point|Canon|A.S. COMPUTERS|Mr. Harish  Chandra|Civil Line,Bus Stand Ke Samne,Gonda|271002|ascomputer86@gmail.com||Uttar Pradesh|Gonda|27.1244766|81.941556| |||9889280517|||
https://edge.canon.co.in/service-networks|professional camcorder|Authorized Service Centre|Canon|Computer Campus|Mr. Puneet Prakash Agarwal|Bariyaghat, Infront of Punchmukhi Mahadeh Temple |231001|computer_campus@outlook.com||Uttar Pradesh|Mirzapur|25.1519259|82.572108| |||9415205594|||
https://edge.canon.co.in/service-networks|professional camcorder|Camera Collection Point|Canon|Chandrika Digital Studio|Mr.Rajan|120 W Block, 3rd Avenue, Anna Nagar|600040|chandrikadigitalstudio@gmail.com||Tamil Nadu|Chennai|13.0924581|80.21694| |||9841176798|||
https://edge.canon.co.in/service-networks|professional camcorder|Camera Collection Point|Canon|Vijaya Bharathi Digital Cameras|Mr.Murali|844 ,Cumbum Road|625531|studiovijaybharathi@gmail.com||Tamil Nadu|Theni|10.0012337|77.467807| |||9842173217|||
https://edge.canon.co.in/service-networks|professional camcorder|Camera Collection Point|Canon|Savithri Photo House|Mr.Krishna|No. 1,  Deshabhandu Street |641018|savithriservice@gmail.com||Tamil Nadu|Coimbatore|10.9990141|76.968827| ||||||
https://edge.canon.co.in/service-networks|professional camcorder|Camera Collection Point|Canon|Sri Venkateswara Digital Stores|Mr.Kumar|No – 40, Dr. Besant Road   Dr. Besant Road, Kumbakonam|612001|svpsdigitallab@gmail.com||Tamil Nadu|Kumbakonam|10.9615929|79.381174| |||7598835626|||
https://edge.canon.co.in/service-networks|professional camcorder|Camera Collection Point|Canon|Sree Bharani Trader|Mr.Thirunavukarasu|Kadampari Towers - B7, 1509 Erode|638011|bharaniphoto@gmail.com||Tamil Nadu|Erode|11.3280496|77.693695| |||9865954437|||
https://edge.canon.co.in/service-networks|professional camcorder|Authorized Service Franchise|Canon|Sehaj Peripherals Solution|Mr. Ram Sharma|3781/2, first floor, Pakhowal Road|141001|ccclud@gmail.com||Punjab|Ludhiana|30.88598|75.824079| |||9815214648|||
https://edge.canon.co.in/service-networks|professional camcorder|camera collection point|Canon|Camera Point|Dihind|Lan Ship Mall, Ground Floor, Mavoor Road Junction, Calicut -4|673001|camerapoint.clt4@gmail.com||Kerala|Calicut|11.2588575|75.780089| |||9605999888|||
https://edge.canon.co.in/service-networks|professional camcorder|camera collection point|Canon|Maa Tanot IT Services|Mr. Harish|309,1, Salawada Pada, Behind Old Bijlighar, Near Hazoori Samaj Bhawan|345001|maatanotitservices@gmail.com||Rajasthan|Jaisalmer|23.127865|73.519656| |||8107955255|||
https://edge.canon.co.in/service-networks|professional camcorder|Camera Collection Point|Canon|D S GLOBAL SOLUTION|Mr. Khushi Ram|NEAR FIRST TOWER, PATEL COLONY|303303|DSGLOBALSOLUTIONDAUSA@GMAIL.COM||Rajasthan|Dausa|26.9001276|76.336728| |||7014249159|||
https://edge.canon.co.in/service-networks|professional camcorder|Camera Collection Point|Canon|Shree Balaji Service Center|MR. TUFAN SINGH|HIGH SCHOOL ROAD, JHALRAPATAN|326023|SHREEBALAJICOMPUTER2005@GMAIL.COM||Rajasthan|Jhalawar|24.533814|76.168978| |||8890882445|||
https://edge.canon.co.in/service-networks|professional camcorder|camera collection point|Canon|Shri Guru Peripherals|AJEYA.S|1st Floor,10-03-83b10,sri ram building kalsanka udupi|576101|shriguru7744@yahoo.in||Karnataka|Udupi|13.3450382|74.75073| |||9686607917|8970884032||
https://edge.canon.co.in/service-networks|professional camcorder|Camera Collection Point|Canon|Rajasthan|MR. RAM SINGH CHOUDHARY|F-107, FIRST FLOOR, HARI OM MARKET, DEEDWANA ROAD|341001|JEEVAITSERVICE@GMAIL.COM||Rajasthan|Nagaur|27.1949061|73.770857| ||||||
https://edge.canon.co.in/service-networks|professional camcorder|Camera Collection Point|Canon|Jai Jinendra IT & Outsourcing Services|Mr. Jai Singh|Opp. Income Tax Office, Silver Square Mall, Shop No.14, Rani Bazar|334001|jjitos9699@gmail.com||Rajasthan|Bikaner|28.0117|73.3165| |||9413431620|||
https://edge.canon.co.in/service-networks|professional camcorder|camera collection point|Canon|Jeeva IT Services|MR. RAM SINGH CHOUDHARY|F-107, FIRST FLOOR, HARI OM MARKET, DEEDWANA ROAD|341001|JEEVAITSERVICE@GMAIL.COM||Rajasthan|Nagaur|27.1949061|73.770857| |||8949715695|||
https://edge.canon.co.in/service-networks|professional camcorder|camera collection point|Canon|Laxmi Sales|Mr. Vikas Sharma|Adarsh Nagar Borsi Road Maharaja Chowk|491001|laxmisalescis@gmail.com||Chhattisgarh|Durg|21.173638|81.294618| |||9827470432|||
https://edge.canon.co.in/service-networks|professional camcorder|camera collection point|Canon|Scorpio Systems|Mr. Pratik Jarole|SHOP NO. 16, GULSHAN PLAZA, AHEAD OF KUSHAL AUTO|444601|info@cisamravati.in||Maharashtra|Amravati|20.9186362|77.751775| |||7507572210|||
https://edge.canon.co.in/service-networks|professional camcorder|camera collection point|Canon|Vardhaman Photo Emporium|Mr. Niket Jain|06, Kothade Complex, Nirala Bazar|431001|vardhmanphoto@gmail.com||Maharashtra|Aurangabad|19.881266|75.324827| |||9423779420|||
https://edge.canon.co.in/service-networks|professional camcorder|camera collection point|Canon|Printech Multisolutions|Mr. Shahzad Akhtar|S-69, UTKARSH NIRMAN, MANGAL BAZAR ROAD, SADAR|440013|cccnag@gmail.com||Maharashtra|Nagpur|21.1647428|79.0798294| |||9370322567|||
https://edge.canon.co.in/service-networks|professional camcorder|authorized service center|Canon|Reyansh Infosystems|Mr. Mrityunjay Mitra|Madhu Chanda Nandi, D B Road Bye Lane, Sidhi Vinayak Lane|723101|reyanshinfosystems@gmail.com||West Bengal|Purulia|23.342145|86.3608046| |||8409850088|||
https://edge.canon.co.in/service-networks|professional camcorder|authorized service center|Canon|Ghoshal Informatics & Technology Pvt. Ltd.|Ms. Malavika Ghoshal|113, GT Road ( EAST) Rambandhu Talaw|713303|canonasansol@gmail.com||West Bengal|Asansol|23.6812011|86.9869468| |||8170024651|||
https://edge.canon.co.in/service-networks|professional camcorder|camera collection point|Canon|Champion Computers|Mrs. Rajni Agrawal|FIRST FLOOR; 342-B; SHOPPING CENTER; KOTA; RAJASTHAN-324007|324007|CHAMPION@KAPPA.NET.IN||Rajasthan|Kota|25.1696721|75.8464728| |||9314091811|||
https://edge.canon.co.in/service-networks|compact camera|master service center|Canon|Level IV Camera Service Centre|Mrs. K Rukmini Srinivas|No3, 3rd Floor, Salarpuria Windsor,Ulsoor Road|560042|customersupport@canon.co.in||Karnataka|Bangalore|12.9755195|77.617655| ||||||
https://edge.canon.co.in/service-networks|compact camera|master service center|Canon|Level IV Camera Service Centre|Mrs. Sonal Behl|Unit No. - 214 To 218, 2Nd Floor, Narain Manzil, Barakhamba Road|110001|customersupport@canon.co.in||Delhi/NCR|Delhi|28.629368|77.223847| ||||||
https://edge.canon.co.in/service-networks|compact camera|master service center|Canon|Level IV Camera Service Centre||4th Floor, 4A, Abanindranath Sarani (Camac Street)|700017|customersupport@canon.co.in||West Bengal|Kolkata|22.546133|88.352605| ||||||
https://edge.canon.co.in/service-networks|compact camera|master service center|Canon|Level IV Camera Service Centre||502, 5th Floor 194, Natraj By Rustomjee, Junction of Andheri Kurla Road and Western Express Highway|400064|customersupport@canon.co.in||Maharashtra|Mumbai|19.1164748|72.854374| ||||||
https://edge.canon.co.in/service-networks|compact camera|master service center|Canon|Level IV Camera Service Centre|Mrs. Sonal Behl|Unit No. - 214 To 218, 2nd Floor, Narain Manzil, Barakhamba Road|110001|customersupport@canon.co.in||Delhi|Delhi|28.629368|77.223847| ||||||
https://edge.canon.co.in/service-networks|compact camera|master service center|Canon|Level IV Camera Service Centre||3rd Floor imperial trade center, MG Road Cochin|682035|customersupport@canon.co.in||Kerala|Cochin|9.9828783|76.282003| ||||||
https://edge.canon.co.in/service-networks|compact camera|master service center|Canon|Level IV Camera Service Centre||“SKCL” Infinite Towers,8th Floor, Plot No – A21 & A22,Thiru-Vi-Ka Industrial Estate, Guindy, Chennai – 600032|600032|customersupport@canon.co.in||Tamil Nadu|Chennai|13.0127159|80.200938| ||||||
https://edge.canon.co.in/service-networks|compact camera|Camera Collection Point|Canon|Mehak Peripherals|Mr. Lalit Arora|106 1st Floor,Padma Tower 1 Rajendra Place|110008|cccdel.ncr@gmail.com||Delhi/NCR|Delhi|28.6451836|77.178038| ||||||
https://edge.canon.co.in/service-networks|compact camera|Camera Collection Point|Canon|Tez-X Automation|Mr. Nishan Singh|304- 3rd Floor; Bajaj House; Building 97; Nehru Place; New Delhi -110019|110019|canonasc.delhi@gmail.com||Delhi|Delhi|28.5479938|77.251786| ||||||
https://edge.canon.co.in/service-networks|compact camera|Camera Collection Point|Canon|Tez-X Automation|Mr. Nishan Singh|304- 3rd Floor; Bajaj House; Building 97; Nehru Place; New Delhi -110019|110019|canonasc.delhi@gmail.com||Delhi/NCR|Delhi|28.5479938|77.251786| ||||||
https://edge.canon.co.in/service-networks|compact camera|Camera Collection Point|Canon|Silicon IT Solutions|Manoj Tomer|Shop no. 12B, Ground Floor, Laxmi Market (Atta Market ), Sec-27 Noida ( Near to Vinayak hospital)|284001|sits.canon@gmail.com||Delhi/NCR|Noida|28.5711847|77.328182| ||||||
https://edge.canon.co.in/service-networks|compact camera|Camera Collection Point|Canon|Mehak Infotech|Atul Kumar|1st Floor 42/38 Vashisth Complex, Rajiv colony, NH -8 Gurgaon -122001, Near Foot Over Bridge|122001|asccanon@gmail.com||Haryana|Gurgaon|28.3499215|77.066034| ||||||
https://edge.canon.co.in/service-networks|compact camera|Camera Collection Point|Canon|Appolo  Systems And Services|Rakesh kumar|Shop No 220, Block No 22, SDA ComplexKasumpati|171009|appollosystems@yahoo.com||Himachal Pradesh|Shimla|31.0784644|77.180304| ||||||
https://edge.canon.co.in/service-networks|compact camera|camera collection point|Canon|Shree Balaji Technology|Mukesh|2nd Basement.Sh.Balazi Plaza,Out Site Nagori Gate,Near Handloom emporaim|125001|GCS_hisar@yahoo.co.in||Haryana|Hissar|29.1616981|75.721108| |||9215676500|||
https://edge.canon.co.in/service-networks|compact camera|Camera Collection Point|Canon|Gee Computers|Gurmukh|SCO # 24-25 , Doaba Market, Adj. Punjab Roadwayes Depot No 1 Opp. Bus Stand, Jalandhar|144001|cccjal@gmail.com||Punjab|Jalandhar|31.312231|75.593256| ||||||
https://edge.canon.co.in/service-networks|compact camera|Camera Collection Point|Canon|High Performance Computer Co|Mr Jagmohan|66 First Floor Nehru Shopping ComplexLawrence Road|143001|jaggu_hpc@yahoo.com||Punjab|Amritsar|31.6418942|74.876| ||||||
https://edge.canon.co.in/service-networks|compact camera|Camera Collection Point|Canon|MS VP Sale And Servicing|Vinod Raina|5A/A Gandhi Nagar Near Police Station On National Highway Side|180004|vinod.rainavpservicing@gmail.com||Jammu and Kashmir|Jammu|32.701706|74.855046| ||||||
https://edge.canon.co.in/service-networks|compact camera|Camera Collection Point|Canon|Next Vision Technology|Jitender Singh Guleria|Shop No 128/9, 1st Floor,College Raod|175001|nextvision.mnd@gmail.com||Himachal Pradesh|Mandi|31.6962683|76.923973| ||||||
https://edge.canon.co.in/service-networks|compact camera|Camera Collection Point|Canon|Offcom Equipments|Mr Sajad|90 Munir ManzilRegal Chowk|190001|sajad.banday@offcom-sgr.com||Jammu and Kashmir|Srinagar|34.0826627|74.862409| ||||||
https://edge.canon.co.in/service-networks|compact camera|Camera Collection Point|Canon|Soniteck Computer|Anil Kumar|Shop No 9 Dhobi Ghat MarketNear Sanghi Nursing Home Sonipat Stand|124001|sonitekcomputers@yahoo.com||Haryana|Rohtak|28.8973324|76.586565| |||9896671380|||
https://edge.canon.co.in/service-networks|compact camera|Camera Collection Point|Canon|Sterlite Technical Services|Shailender Tomar|2nd floor  7- New Road opp. MKP(PG)College  Near Doon Hospital|248001|cccdeh@gmail.com||Uttarakhand|Dehradun|30.3190194|78.04365| ||||||
https://edge.canon.co.in/service-networks|compact camera|Camera Collection Point|Canon|The Computer Point|Mr Ajay thakur|The Computer point SCO- 11 Top Floor Sec 20 D Chandigarh 160022|160020|cccchd@gmail.com||Punjab|Chandigarh|30.7401917|76.748064| |||9417421292|||
https://edge.canon.co.in/service-networks|compact camera|Camera Collection Point|Canon|DEV Technology|Mr Kamal Bisht|1, Guru Teg Bahadur Market,Tikonia, HALDWANI, Nainital |263139|devtechnology05@gmail.com; devtech.service@yahoo.com||Uttarakhand|Haldwani|29.223592|79.530387| ||||||
https://edge.canon.co.in/service-networks|compact camera|Camera Collection Point|Canon|N A Marketing|Mr Ajay thakur|Shop No. 1, Chadha Complex, Jail Road, Near Dukhnivaran Sahib Gurdwara, Patiala|147001|namarketing175@gmail.com||Punjab|Patiala|30.346952|76.396075| ||||||
https://edge.canon.co.in/service-networks|compact camera|Camera Collection Point|Canon|Himachal Infotech|Mr Rajiv|Near Himachal Cinema Nangal Road UNA HP|174303|himachalinfotech2010@gmail.com||Himachal Pradesh|Una|31.4662255|76.276178| ||||||
https://edge.canon.co.in/service-networks|compact camera|Camera Collection Point|Canon|GTE Computer|Mr Goutam|GIC Road near Lead Bank Pithoragarh UK|252501|gtepth@gmail.com||Uttarakhand|Pithoragarh|29.5856649|80.210775| ||||||
https://edge.canon.co.in/service-networks|compact camera|Camera Collection Point|Canon|Om Office Automation|Mr Dinesh|Near Army Cantt Shuvidha Nagar Rudraprayag UK|246171|omofficeautomation@gmail.com||Uttarakhand|Rudraprayag|30.2844141|78.981141| ||||||
https://edge.canon.co.in/service-networks|compact camera|Camera Collection Point|Canon|Krishna Computer|Mr Ankur|Shop no 959 New awas vikas Saharanpur UP|247001|krishnacomputer.printer@gmail.com||Uttar Pradesh|Saharanpur|29.9383853|77.543992| ||||||
https://edge.canon.co.in/service-networks|compact camera|Camera Collection Point|Canon|Print Media|Mr Ishfaq Guhnoo|Dar complex 1st & 2nd Floor opposite Hotel Four Bhai General Bus Stand Anantnag J&K|192101|ishfaq_25@yahoo.com||Jammu and Kashmir|Anantnag|33.7367021|75.145894| ||||||
https://edge.canon.co.in/service-networks|compact camera|Camera Collection Point|Canon|Maps Pheripherals|Mr Markandey Mishra|Shop No-13, 1st Floor, Sri Ram Complex, Near Roadways, Cantt, Varanasi|221001|cccban@gmail.com||Uttar Pradesh|Varanasi|25.329059|82.965831| ||||||
https://edge.canon.co.in/service-networks|compact camera|camera collection point|Canon|Global Intech Services|Mr Azhar Husain|FFC 05, Somdutt Plaza 3rd Naveen Market, The Mall|208001|ccckan1@gmail.com||Uttar Pradesh|Kanpur|26.4822916|80.317197| |||9415515523|9984786491||
https://edge.canon.co.in/service-networks|compact camera|Camera Collection Point|Canon|A.V. Computer Services|Mr Vaibhav|city enclave , oppsite kumar nurshing home, ramghat road , aligarh|202001|canon.aligarh@gmail.com||Uttar Pradesh|Aligarh|27.8885505|78.080712| ||||||
https://edge.canon.co.in/service-networks|compact camera|Camera Collection Point|Canon|Sandeep Commercial College|Mr Sachin|4,satyam palaza, PL Sharma Road|250001|sandeep_commercial@yahoo.com||Uttar Pradesh|Meerut|28.9929603|77.710258| ||||||
https://edge.canon.co.in/service-networks|compact camera|Camera Collection Point|Canon|Unique Computer And Communication|Mr Binay Yadav|Shop No.425Shaligram Bhawan,Shahi MarketCinema RoadGolghar|273001|unique_com2003@yahoo.com||Uttar Pradesh|Gorakhpur|26.7560875|83.370182| ||||||
https://edge.canon.co.in/service-networks|compact camera|Camera Collection Point|Canon|R.R. Solutions|Mr Shad Alam|B-61, upper Basement, First Floor, Indira Bhawan, Civil Linc, Allahabad|211001|rrsolutionallahabad@gmail.com||Uttar Pradesh|Allahabad|25.4494274|81.834859| ||||||
https://edge.canon.co.in/service-networks|compact camera|Camera Collection Point|Canon|Sai Computers|Mr Vijay|Bala Ji Colony, Friends Colony, Bharthana Road, Etawah|206001|saicanon7@gmail.com||Uttar Pradesh|Etawah|26.7892761|79.02968| ||||||
https://edge.canon.co.in/service-networks|compact camera|Camera Collection Point|Canon|OM Computers|Mr Prahyanshu|Main Road, Khaprail Bazar, Lakhimpur-Khiri|262701|omlmp@yahoo.com||Uttar Pradesh|Lakhimpur-Khiri|27.9477801|80.78057| |||9452145854|||
https://edge.canon.co.in/service-networks|compact camera|Camera Collection Point|Canon|R. G. Solutions|Mr Gaurav Singh Rajput|756/48 Nand Residency,Narayan Bagh Road|284001|rgsolutionsjhansi@gmail.com||Uttar Pradesh|Jhansi|25.4493269|78.591426| |||8756287503|9696843978||
https://edge.canon.co.in/service-networks|compact camera|Camera Collection Point|Canon|Max Smart Gallery|Mr Sonu Saini|Shop - 103-104, Super Bazaar, Station Road, Moradabad|244001|maxsmartgallery@gmail.com||Uttar Pradesh|Moradabad|28.8337572|78.77173| ||||||
https://edge.canon.co.in/service-networks|compact camera|Camera Collection Point|Canon|Limra Telecom and Computer|Mr Ghulam Ali|Limra Manzil, Garwar Road, Umarganj, Ballia|277001|limracomputer.ali@gmail.com||Uttar Pradesh|Ballia|25.7591956|84.138672| ||||||
https://edge.canon.co.in/service-networks|compact camera|Camera Collection Point|Canon|Galaxy Infotech|Mr. Dhanesh Prakash Bharadwaj|4/S-25F-1, SUPER MARKET, SANJAY PLACE|282001|galaxyagra@gmail.com||Uttar Pradesh|Agra|27.2010588|78.008623| ||||||
https://edge.canon.co.in/service-networks|compact camera|Camera Collection Point|Canon|Plus Computer Repairing Center|Mr. Sharoor Mohammad|SHOP NO.-9,CITY CENTER,JEEVAN SHAH TEERAHA|284002|Asc.jhansiplus.canon@gmail.com||Uttar Pradesh|Jhansi|25.4534825|78.569634| ||||||
https://edge.canon.co.in/service-networks|compact camera|Camera Collection Point|Canon|Computer Zone|Avinash Kumar Verma|5,RAIDOPUR,NEAR DURGA JI MANDIR|276001|avinash@computerzone.net.in||Uttar Pradesh|Azamgarh|26.0062767|83.193694| ||||||
https://edge.canon.co.in/service-networks|compact camera|Camera Collection Point|Canon|Vats Peripherals Services|Mr. Omkar Mishra|1st Floor, Jalkal Complex North|274001|vats.karjhan@gmail.com||Uttar Pradesh|Deoria|26.4981451|83.78586| |||8948366542|9455929328||
https://edge.canon.co.in/service-networks|compact camera|Camera Collection Point|Canon|Sun Infotech Solutions|Mr. Vicky / Bupesh|1st Floor 4/24 Sukhadia Shopping Center,Sri Ganganagar-335001|335001|suninfotech.sgnr@gmail.com||Rajasthan|SrigangaNagar|29.9089937|73.881276| |||9784696000|||
https://edge.canon.co.in/service-networks|compact camera|Camera Collection Point|Canon|Technocrats Lab|Mr. Avni Gupta|S-33Sector-2,M.P.Nagar, Bikaner-3334001|334001|avnibik@yahoo.co.in||Rajasthan|Bikaner|28.039872|73.296513| |||9829141940|||
https://edge.canon.co.in/service-networks|compact camera|Camera Collection Point|Canon|Shri Balaji Computer Peripherl|Surendra Kumar Surtaniya|Basement Hotel Kalinga Palace, Station Road, Barmer-344001, Rajasthan, India |344001|sbcp.barmer@gmail.com||Rajasthan|Barmer|25.746202|71.395402|2982|230483|||||
https://edge.canon.co.in/service-networks|compact camera|Authorised Service Franchise|Canon|Central Camera Services|Mr. Pankaj Sharma|Opposite metro pillar no 126,Near Shyam Nagar metro station,Sodala|302019|ccscanonjp@gmail.com||Rajasthan|Jaipur|26.8965933|75.770674| |||9214339947|||
https://edge.canon.co.in/service-networks|compact camera|Camera Collection Point|Canon|Kannu Computers|Mr. Ram Singh|Riddhi Plaza, First Floor, Shop No 3/2, Housing Board, Devipura|306401|kannucompali@gmail.com||Rajasthan|Sikar|25.793767|73.304414| |||9782855596|||
https://edge.canon.co.in/service-networks|compact camera|Camera Collection Point|Canon|Right Click|Mr. Imran|1-A, Chaugan Scheme, K.C. Complex, Near Lok Kala Mandal, Udaipur, Rajasthan-313001|313001|rightclickudr@gmail.com||Rajasthan|Udaipur|24.5944554|73.691711| |||9799277558|||
https://edge.canon.co.in/service-networks|compact camera|Camera Collection Point|Canon|Rajawat Computech|Mr. Ashish|Shree Agarsen Tower, 1A, Jai Complex, 1st Floor, Alwar, Rajasthan-301001|301001|rajawat.computech@gmail.com||Rajasthan|Alwar|27.5689489|76.608704| |||8955027736|||
https://edge.canon.co.in/service-networks|compact camera|Camera Collection Point|Canon|Shri S S Computer And Printers|Mr. Sunil|36/288; KESHAV KI PRATIMA; DESHWALI GALI; SARVESHWAR NAGAR; LOHAKHAN; AJMER; RAJASTHAN|305001|Shriscomputer4@gmail.com||Rajasthan|Ajmer|26.4817089|74.651311| |||7230990255|||
https://edge.canon.co.in/service-networks|compact camera|Camera Collection Point|Canon|Simplex Electronics|Mr. Rakesh|753; KHATRI BHAWAN; NEAR GEETA BHAWAN; UMAID HOSPITAL ROAD; SARDARPURA; JODHPUR-342003|342003|sccjod@gmail.com||Rajasthan|Jodhpur|26.2832313|73.00658| |||9314133177|||
https://edge.canon.co.in/service-networks|compact camera|Camera Collection Point|Canon|Global Service Center|Mr. Randhir|B-NARAYAN GATE; CIRCULAR RAOD; BHARATPUR; RAJASTHAN|321001|globalservicecenterbtp@gmail.com||Rajasthan|Bharatpur|27.2118614|77.496472| |||9269344405|||
https://edge.canon.co.in/service-networks|compact camera|Camera Collection Point|Canon|MAA IT Service|Mr. Swai|Maa Kripa Building, Near ESI Hospital No.1, PHED Office, Sub Registrar Office, Bhatwara, Jodhpur Road|306401|SWAISINGH5810@GMAIL.COM||Rajasthan|Pali|25.7921419|73.304546| |||9461145819|||
https://edge.canon.co.in/service-networks|compact camera|Camera Collection Point|Canon|Prachi Computers|Mr. Suresh|BALAJI KATLA; NEAR TONK BUS STAND; BAJARIA; SAWAI MADHOPUR-322001|322001|prachicomputerswm@gmail.com||Rajasthan|Sawai Madhopur|26.0177308|76.35297| |||9414346240|||
https://edge.canon.co.in/service-networks|compact camera|camera collection point|Canon|IT Campus|Mr Anantaya Sarkar|45/1 Khalui Bill Mathfirst Lane Near Omkarnath Ashram Burdwan -713101|713101|asccanon.bwn@gmail.com||West Bengal|Burdwan|23.5797663|87.291854| |||9434665543|||
https://edge.canon.co.in/service-networks|compact camera|camera collection point|Canon|Vision Edge Solution|Mr Dipankar Dutta|Vision Edge Solution, C/O Arijit Sarkar, RC-131, A.P.C Roy Sarani, Gnd Floor, GITANJALI Park, Bengal Ambuja, City Centre|713216|support.dgp@visionedge.co.in||West Bengal|Durgapur|23.5351722|87.303458| |||9883966770|||
https://edge.canon.co.in/service-networks|compact camera|camera collection point|Canon|Megha Associates|Mr Paras Choudhary|81/5; A.C Road Indraprastha; PO Khagra District Murshidabad|742103|megha.asso@gmail.com||West Bengal|Berhampore|24.1041317|88.255456| |||9476171593|||
https://edge.canon.co.in/service-networks|compact camera|Camera Collection Point|Canon|Micro Digital|Mr. Krishna Chandra Mondal|W. No. 9, 98, Mnk Road,Po Bharsalapara Birbhum,near Hanuman Mandir Rampurhat|731224|serv.rampurhat@gmail.com||West Bengal|Rampurhat|24.1802618|87.791583| |||9749250934|||
https://edge.canon.co.in/service-networks|compact camera|Camera Collection Point|Canon|Comtec|Mr. Partha Pratim Shau|Police Club Shopping Complex,Room No. FF 18,and 19, Library Road,Mednipur - 721101|721101|comtec12@rediffmail.com||West Bengal|Mednipur|22.4192966|87.324919| |||9434229905|||
https://edge.canon.co.in/service-networks|compact camera|Camera Collection Point|Canon|Das and Das Computer|Mr Partha Das|Subhas Pally Kanir More,P.O. Dist- Malda,Malda Town - 732101|732101|ddcmalda2003@rediffmail.com||West Bengal|Malda|25.0101195|88.134324| |||9434165982|||
https://edge.canon.co.in/service-networks|compact camera|Camera Collection Point|Canon|Unique Services|Mr Chittaranjan Naskar|15, West Lanes Bow Bazar,Krishnanagar - 741101 |741101|unique.servicek@gmail.com||West Bengal|Krishna nagar|23.3992401|88.490928| |||9831002357|||
https://edge.canon.co.in/service-networks|compact camera|Camera Collection Point|Canon|Joy enterprises|Mr Joy Majumdar|19, Mukherjee Para Lane, Serampore,Hoogly - 712201|712201|joyenterprise@rediffmail.com||West Bengal|Serampore|22.7555537|88.338624| |||9830348410|||
https://edge.canon.co.in/service-networks|compact camera|Camera Collection Point|Canon|Balaji Computers|Mr. Chandra Shekhar Singh|Nandlal Complex, Near SBSTC Depot,Purulia - 723101|723101|ascpurulia@gmail.com||West Bengal|Purulia|23.3318429|86.360484| |||9434105940|||
https://edge.canon.co.in/service-networks|compact camera|Authorized Service Franchise|Canon|The Peripheral Services|Mr Tribhuvan Prasad|03 M ,OM Complex,S. P. Verma Road|800001|cccpat1@gmail.com||Bihar|Patna|25.6115493|85.140036| |||9334117605|||
https://edge.canon.co.in/service-networks|compact camera|Camera Collection Point|Canon|The Peripheral Services|Mr Tribhuvan Prasad|03 M ,OM Complex,S. P. Verma Road|800001|cccpat1@gmail.com||Bihar|Patna|25.6115493|85.140036| |||9334117605|||
https://edge.canon.co.in/service-networks|compact camera|Authorized Service Franchise|Canon|Axiom Computers Pvt. Ltd.|Jyoti Prakash|11, Janpath, 1st floor, Satya Nagar|751007|cccbub@gmail.com||Orissa|Bhubaneswar|20.2801196|85.843918| |||8018618369|||
https://edge.canon.co.in/service-networks|compact camera|Camera Collection Point|Canon|Axiom Computers Pvt. Ltd.|Jyoti Prakash|11, Janpath, 1st floor, Satya Nagar|751007|cccbub@gmail.com||Orissa|Bhubaneswar|20.2801196|85.843918| |||8018618369|||
https://edge.canon.co.in/service-networks|compact camera|Camera Collection Point|Canon|Visual Computers|Mr. Santosh Kumar|Hatibandha Street|760001|visual_computers@rediffmail.com||Orissa|Berhampore|19.3098962|84.798765| |||9437609558|||
https://edge.canon.co.in/service-networks|compact camera|Camera Collection Point|Canon|Tech Exchange|Mr. Ratikanta Giri|Plot No. 233, Saheed Nagar|751007|canon_tech@rediffmail.com||Orissa|Bhubaneswar|20.2905697|85.847697| |||9937878932|||
https://edge.canon.co.in/service-networks|compact camera|Camera Collection Point|Canon|Prakash Informatics|Mr. Mohd. Akhtar|1st Lane,JM Colony,Budharaja|768004|pratech100@yahoo.co.in||Orissa|Sambalpur|21.4812405|83.98353| |||9853375431|||
https://edge.canon.co.in/service-networks|compact camera|Camera Collection Point|Canon|Intelligent Systems|Mr. Ritesh Kumar Sarangi|DIC Office Square, Ground Floor, OT Road, Anghar Gadia|756001|service@techinteli.com||Orissa|Balasore(Baleswar)|21.4882268|86.917227| |||9337184849|||
https://edge.canon.co.in/service-networks|compact camera|Camera Collection Point|Canon|Diligent Solutions|Mr. Sourav Biswas|303, 3rd Floor,Yashkamal Complex, Bistupur|831001|diligentsolutionsjsr@gmail.com||Jharkhand|Jamshedpur|22.7956904|86.184448| |||9334804257|||
https://edge.canon.co.in/service-networks|compact camera|Camera Collection Point|Canon|Loknath Infotech|Mr. Pradosh Pati|KMBM Road; Baripada|757001|loknathinfotech@yahoo.co.in||Orissa|Baripada|21.9359026|86.72368| |||9937382712|||
https://edge.canon.co.in/service-networks|compact camera|Camera Collection Point|Canon|Savvy Tech Solutions|Mr. Sarwar|Manjhiyao Road, Near Bazar Samiti Back Side of Railway Crossing, Garhwa|834001|canonservicegarhwa@gmail.com||Jharkhand|Garhwa|24.1687198|83.807355| |||7004223909|||
https://edge.canon.co.in/service-networks|compact camera|Camera Collection Point|Canon|Auto Machine|Mr. Ramanand Chourasia|Court Compound; Chuha Bagan|814101|pappu50216@gmail.com||Jharkhand|Dumka|24.2537646|87.236657| |||9431150216|||
https://edge.canon.co.in/service-networks|compact camera|Camera Collection Point|Canon|Swarnrekha|Mr. Sushil Gupta|BNS Building; Near SBI ATM; Main Road; Hinoo|834002|swarnrekha.canon01@gmail.com||Jharkhand|Ranchi|23.331498|85.316936| |||8210471381|||
https://edge.canon.co.in/service-networks|compact camera|Camera Collection Point|Canon|Aditya Info Solution|Mr. Sandeep Sinha|Pugmil Road; 1st Floor; H. No. 02T; Plot No. 672|825301|sandeepsinha333@gmail.com||Jharkhand|Hazaribagh|24.0082409|85.349799| |||9973291507|||
https://edge.canon.co.in/service-networks|compact camera|Camera Collection Point|Canon|All Solutions|Mr. Kamlesh Kumar|3rd Floor; Devraj Complex; Adarsh Vihar; Dhansar|828106|allsolution6431@gmail.com||Jharkhand|Dhanbad|23.7768804|86.414934| |||9470508909|||
https://edge.canon.co.in/service-networks|compact camera|Authorized Service Franchise|Canon|Techshop Services|Mr. Anjan Bhattacharjee|House No 66; Rajagarh Main Road|781007|techshopservices.canon@gmail.com||Assam|Guwahati|26.1681856|91.769623| |||8473911463|9859945094|9435145094|
https://edge.canon.co.in/service-networks|compact camera|Camera Collection Point|Canon|System & Solutions|Mr. Manna Dey|Durga Bari Road, UMA Complex,Opp. Choudhary Shopping Complex, Barpeta Road    |781315|system.solution6600@gmail.com||Assam|Barpeta Road|26.4984428|90.969895| |||9435736600|||
https://edge.canon.co.in/service-networks|compact camera|Camera Collection Point|Canon|Computer Genesis|Mr. Pradeep Jain|Assian Shoping Complex, N.L.Road, Central Plaza, Dimapur,Nagaland|797112|cgdimapur@gmail.com||Nagaland|Dimapur|25.908885|93.72299| |||9436004228|||
https://edge.canon.co.in/service-networks|compact camera|Camera Collection Point|Canon|Techshop Services|Mr. Anjan Bhattacharjee|House No 66; Rajagarh Main Road|781007|techshopservices.canon@gmail.com||Assam|Guwahati|26.1681856|91.769623| |||8473911463|9859945094|9435145094|
https://edge.canon.co.in/service-networks|compact camera|Camera Collection Point|Canon|Renan System and Service|Mr. Mehadi Alam|DARBAR ROAD,WARD NO - 3,NEAR TWINKLE STAR ACADEMY, SHIVSAGAR|785640|mehadialam2@gmail.com||Assam|Sibsagar|26.9856628|94.625671| |||9954303139|||
https://edge.canon.co.in/service-networks|compact camera|Camera Collection Point|Canon|Nilima Enterprise|Mr. Jayanta Chodhery|Ronaldsay Road ; Opp Court|799001|nilimaent@hotmail.com||Tripura|Agartala|23.8352449|91.270103| |||9436125328|||
https://edge.canon.co.in/service-networks|compact camera|Camera Collection Point|Canon|Bora Communication|Mr. Gonesh Bora|Jail Road, W. No. 8,North Lakhimpur|787001|goneshbora@yahoo.com||Assam|North Lakimpur|27.2371697|94.100989| |||9435388046|||
https://edge.canon.co.in/service-networks|compact camera|Camera Collection Point|Canon|Digiworld|Santanu Kumar Bora|New Mission Market,Dr. Huze Road|782001|ndw.nagaon@gmail.com||Assam|Nagaon|26.3506237|92.685609| |||9706114344|||
https://edge.canon.co.in/service-networks|compact camera|Camera Collection Point|Canon|Tech Max|Mr. Prasanta Das|G.D Complex N.T Road,Opposite Bank Of Baroda|784001|prasant_d27@yahoo.com||Assam|Tezpur|26.652849|92.792559| |||9864246579|||
https://edge.canon.co.in/service-networks|compact camera|Camera Collection Point|Canon|IT Online|Mr. Mamon Sharma|N.S.Avenue; Hospital Road|788005|itonline.silchar@gmail.com||Assam|Silchar|24.8225398|92.799127| |||9435071302|||
https://edge.canon.co.in/service-networks|compact camera|Camera Collection Point|Canon|Eureka Trading|Mr. Pawan Sharma|SHOP NO - 87, MUDA,POLICE BAZAR|793001|eurekatrading_2006@yahoo.com||Meghalaya|Shillong|25.5764966|91.882058| |||9863067469|||
https://edge.canon.co.in/service-networks|compact camera|Camera Collection Point|Canon|Mangall Infotech endover|Mr. Jeevan Chandra|Pona bazar|795001|amt.mnp@gmail.com||Manipur|Imphal|24.8048485|93.934614| |||9402882867|||
https://edge.canon.co.in/service-networks|compact camera|Authorized Service Centre|Canon|Micro Lab|Mr Sabyasachi Bagchi|D-14; Bijoydeep Building, Siliguri, Pin-734001|734001|mlabslg@gmail.com||West Bengal|Siliguri|26.7198262|88.425962| |||9126672082|||
https://edge.canon.co.in/service-networks|compact camera|authorized service center|Canon|Printer Bazar|Mr Tanmoy Saha|508/630 Uttar Arabindra Nagar, Alipuduar court|736122|printerbazar.coochbehar@gmail.com||West Bengal|Alipurduar|26.3305408|89.451171| ||||||
https://edge.canon.co.in/service-networks|compact camera|Authorized Service Centre|Canon|Wintech Services|Mr. Sagar Kalburgi|4360/B, Opp. Jalgar Maruti Mangal Karyalay, Near Court Compound, Chavat Galli, Belgaum|590001|wintech1415@gmail.com||Karnataka|Belagavi(Belgaum)|15.8657439|74.515613| |||9632703737|||
https://edge.canon.co.in/service-networks|compact camera|Authorized Service Centre|Canon|Standard Technologies|Mr. Praveen chand|1st Floor Sarvamangala Bldg.,Valencia, Mangalore|575002|praveen_chandm@yahoo.com||Karnataka|Mangalore|12.8642068|74.857959| |||9845137943|||
https://edge.canon.co.in/service-networks|compact camera|Camera Collection Point|Canon|Orbit Enterprises|Mr. U.Murugan|# 5 Palace Towers ,Cherry Road, |636001|orbit_slm@hotmail.com||Tamil Nadu|Salem|11.658429|78.15858| |||9344422199|||
https://edge.canon.co.in/service-networks|compact camera|Camera Collection Point|Canon|Magnanim Systems|Mr. Ramesh|25, (First Floor),Needarajappaiyar Street|605001|service@magnanimsystem.in||Pondicherry|Pondicherry|11.9338556|79.829604| |||9894732828|||
https://edge.canon.co.in/service-networks|compact camera|Camera Collection Point|Canon|JK PRINTERS|Mr. Ravi|232/A,THIRUCHENDUR ROAD,NEAR HOTEL ANNAPOORNA,Palayamkottai|627002|jkprinters111@gmail.com||Tamil Nadu|Tirunelveli|8.7268333|77.735759| |||9843189111|||
https://edge.canon.co.in/service-networks|compact camera|Camera Collection Point|Canon|Aim Enterprises|M.Prabaharan|No 112 Opp Bjp Bhawan,Shop No 3 M.G Road Middle Point|744101|info@aimenterprises.net||Andaman and Nicobar Islands|Port Blair|11.6687448|92.7363| |||9434282223|||
https://edge.canon.co.in/service-networks|compact camera|Camera Collection Point|Canon|Vel Support and Systems|Mr. Shiva Kumar|No. 9 Alagesan Road, Vedachalam Nagar,Chengalpattu|603001|velservice2010@gmail.com||Tamil Nadu|Chengalpet|12.6872869|79.98228| |||9865180110|||
https://edge.canon.co.in/service-networks|compact camera|Camera Collection Point|Canon|JK Printers|Mr.B.Ravi|173/1, Vakkil New Street, Simmakkal|625001|jkprintersmdu@gmail.com||Tamil Nadu|Madurai|9.924462|78.120457| |||9843589111|||
https://edge.canon.co.in/service-networks|compact camera|camera collection point|Canon|Terabyte Technologies|Mr.K.Suresh Kumar|D 46 8th Cross - West, Thillai Nagar|620018|terabytetrichy@gmail.com||Tamil Nadu|Trichy|10.822428|78.685079| |||9842476101|||
https://edge.canon.co.in/service-networks|compact camera|camera collection point|Canon|Inspire Technologies|Mr. Venkatesh V|799,M.I.M,Trade Centre Complex, F7,60 Feet Road,Kumbakonam,Thanjavur|612001|inspire_technologies@yahoo.com||Tamil Nadu|Kumbakonam|10.9586432|79.3767456| |||9842654400|||
https://edge.canon.co.in/service-networks|compact camera|camera collection point|Canon|Teknix|Mr. Girish|Kottamukku,opp- ruby industries,kollam|691013|mail@teknix.in||Kerala|Kollam|8.8881|76.5789| |||9447342015|||
https://edge.canon.co.in/service-networks|compact camera|Camera Collection Point|Canon|Opera Systems|Mr. Subair .P.A|13/789/38-1,Dee Pee Plaza ,Kokkali,thrissur|680021|operasystems@gmail.com||Kerala|Thrissur|10.5136646|76.209826| |||9846423034|||
https://edge.canon.co.in/service-networks|compact camera|Camera Collection Point|Canon|Ascent Info Systems|Mr. Anil|16/630(14), R.K. Building, Kunnathurmedu,palakkad|678013|anilwarriers@yahoo.com||Kerala|Palakkad|10.768312|76.666127| |||9846036935|||
https://edge.canon.co.in/service-networks|compact camera|Camera Collection Point|Canon|IT Marketing Group|Mr. Vikas|19/553G,Eraythan complex, Manjeri Road, Malapuram|676505|itmgmlpm@rediff.com||Kerala|Malapuram|11.0551141|76.091915| |||9447078675|||
https://edge.canon.co.in/service-networks|compact camera|Camera Collection Point|Canon|Insight Printer Care|Mr.Biju Kumar|NADUKUDIYIL PLAZA,267-B7,B8,1ST FLOOR,MUDAVOOR,MUVATTUPUZHA|686669|insightprintercare@gmail.com||Kerala|Muvatupuzha|9.9965612|76.571863| |||9847040552|||
https://edge.canon.co.in/service-networks|compact camera|Camera Collection Point|Canon|Esskay Technology|Mr. Vijaynath G|No 248 B.C Mansion 1St Floor, St.Paul Convent Road P.J Extension|577002|esskaydvg@gmail.com||Karnataka|Davangere|14.4617306|75.917096| |||9880765334|||
https://edge.canon.co.in/service-networks|compact camera|Camera Collection Point|Canon|Dot Com|Mr. Kumar|#280/1, I floor, 15th main, 6th cross,Opp.to Kuvempu School, Kamakshi hospital Road,Saraswathi puram|570009|dotcommys@yahoo.co.in||Karnataka|Mysore|12.2995553|76.627319| |||9845111623|||
https://edge.canon.co.in/service-networks|compact camera|Camera Collection Point|Canon|Navneeth Systems|Mr. Shyam Bhat|1st Floor, GM Sharanappa Building, J.C.Nagar, Hubli|580020|support@navaneet.co.in||Karnataka|Hubli|15.3499231|75.143706| |||9902459999|||
https://edge.canon.co.in/service-networks|compact camera|Camera Collection Point|Canon|Standard Technologies|Mr. Praveen|1st Floor Sarvamangala Bldg.,Valencia, Mangalore|575002|praveen_chandm@yahoo.com||Karnataka|Mangalore|12.8642068|74.857959| |||9845137943|||
https://edge.canon.co.in/service-networks|compact camera|Camera Collection Point|Canon|Sunrise Computers|Mr. Shashikumar|1st Floor, Opp to Gurukula Hostel,Behind Suniana Opticals, B.H Road|572102|sunrisetmk@yahoo.co.in||Karnataka|Tumkur|13.339058|77.113386| |||9845354142|||
https://edge.canon.co.in/service-networks|compact camera|Camera Collection Point|Canon|Millennium Infotech|Mr. Basavaraj|Prerana, 5th Cross Road. A.N.K Road,Venkatesh Nagar|577201|millennium_smg2002@yahoo.co.in||Karnataka|Shimoga|13.9411242|75.570987| |||9845138278|||
https://edge.canon.co.in/service-networks|compact camera|Camera Collection Point|Canon|Vinayaka Computers|Mr.  Avinash|MS Tower Celler, Opp. Bus Depot, Nirmal|504106|vinayakacomputers@hotmail.com||Telangana|Nirmal|19.0895379|78.347695| |||9908033332|||
https://edge.canon.co.in/service-networks|compact camera|Camera Collection Point|Canon|Tele computer solutions|Mr.Kiran Kumar|# 11-3-194, 1st Floor,Beside Baburao Petrol Bunk, Balaji Nagar|507002|tcs_kmm@yahoo.com||TELANGANA|Khammam|17.250568|80.144785| |||9440704303|||
https://edge.canon.co.in/service-networks|compact camera|Camera Collection Point|Canon|S.L. Computers And Communications|Mr. Narayanamurthy|A6 DEVI Appartment, Subhadra Arcade, Bhanugudi junction, kakinada|533001|narayanamurthyp@yahoo.com||Andhra Pradesh|Kakinada|16.9715112|82.235976| |||9848361613|||
https://edge.canon.co.in/service-networks|compact camera|Camera Collection Point|Canon|Sri Sai Technologies|Mr. Sai Kumar|G1, Sri Balaji towers, Beside Reddy seva samiti ladies hostel, Rajiv park road, kadapa|516001|srisaitechnologies.kdp@gmail.com||Andhra Pradesh|Kadapa|14.4621493|78.827161| |||9440521070|||
https://edge.canon.co.in/service-networks|compact camera|camera collection point|Canon|Sai Systems And Communications|Mr. Arun|Shop.No.8, Co-Operative Bank Complex, Near Gandhi Statue, Grand Trunk Road|524001|saisysts@yahoo.com||Andhra Pradesh|Nellore|14.4520746|79.9842| |||9440278775|||
https://edge.canon.co.in/service-networks|compact camera|Camera Collection Point|Canon|Microlion Computers|Mr. Saradhi/ Satish|Venkta Balaji Towersopp Modern Academy College,Jemmichattu Centre|520010|microlion.canon@gmail.com||Andhra Pradesh|Vijaywada|16.506428|80.644312| |||9885772233|||
https://edge.canon.co.in/service-networks|compact camera|Camera Collection Point|Canon|Best technologies|Mr. Durgaprasad|Door no 6/3/194, Near neelagiri college, Ramgiri, NALGONDA |508001|besttechnologies.nlg@gmail.com||Telangana|Nalgonda|17.061346|79.272258| |||8341746322|||
https://edge.canon.co.in/service-networks|compact camera|Camera Collection Point|Canon|Centaur Computer Technology Pvt Ltd|Pooja/ Anirban|Centaur Computer Technology Pvt. Ltd.F-10.Jairam complex,Rua-De-Ourem.Neuginagar,Panjim.Goa -403001|403001|cccgoa2@gmail.com; anirban@centaurcomputer.com||Goa|Panjim|15.490423|73.832375| |||9225902350|||
https://edge.canon.co.in/service-networks|compact camera|Authorized Service Centre|Canon|Satkar Infotech|Mr. Anil Modh|102, 1st Floor, Cosy Complex, Dhundhiyawadi, Dhundhiyawadi Road, Palanpur|385001|anilmodh@rediffmail.com||Gujarat|Palanpur|24.1747252|72.42768| |||9824134340|||
https://edge.canon.co.in/service-networks|compact camera|Camera Collection Point|Canon|Baundia Infotech|Mr. Ankul Agrawal|Richariya Complex, Semariya Chowk, Rewa Road, Satna|485001|baundiastn@gmail.com||Madhya Pradesh|Satna|24.2198207|76.602278| |||9425470787|||
https://edge.canon.co.in/service-networks|compact camera|Camera Collection Point|Canon|Global Systems|Nitin Tiwari|First Floor, Yadav Complex, In front of Cantt Shopping Mall, Civil Lines, Sagar|220572|globalsystems.sagar@gmail.com||Madhya Pradesh|Sagar|23.8416667|78.762778| | ||9407231937|8982491337||
https://edge.canon.co.in/service-networks|compact camera|Camera Collection Point|Canon|PC Infotech Solutions|Mr. Chetan Kumbhani & Mr. Sameer|SHOP NO. 19, 1ST FLOOR, SHIKHAR COMPLEX, JAYSHREE ROAD|362001|pcis.jnd@gmail.com||Gujarat|Junagadh|21.5176033|70.458984| |||9824028910|||
https://edge.canon.co.in/service-networks|compact camera|Camera Collection Point|Canon|Yes Electonics Bharuch|Mr. Nehal Patel/Mr. Vijay Patel|A 31 Mirambica Society B4 Sony World Room,Dahej By Pass Road Village- Bholav(Part)Taluka - Bharuch Dist. Bharuch|392001|cccbha@gmail.com||Gujarat|Bharuch|21.7218502|72.989122| |||9714993915|||
https://edge.canon.co.in/service-networks|compact camera|Camera Collection Point|Canon|Prime Infotech|Mr. Rakesh Kumar Patel/Mr. Paresh|2nd Floor Surya Complex,St Workshop Road|384002|paresh_zeri@yahoo.com paresh.kapadiya@yahoo.com||Gujarat|Mehsana|23.5950398|72.384786| |||9825637007|||
https://edge.canon.co.in/service-networks|compact camera|Camera Collection Point|Canon|Yes Electronics|Mr. Vijay Patel|5 Anmol Plaza Opp. Macdonalds Restaurant,Old Padra Road|390020|cccbar@gmail.com||Gujarat|Baroda|22.2969426|73.165071| |||9824077996|||
https://edge.canon.co.in/service-networks|compact camera|Authorized Service Franchise|Canon|Bhavi Electronics|Mr. Vipul Joshi|101, Shivalik-10, Opp. SBI Zonal Office,S. M. Road, Ambawadi|380015|cccahm@gmail.com||Gujarat|Ahmedabad|23.0221559|72.547271| |||9824263285|||
https://edge.canon.co.in/service-networks|compact camera|Authorized Service Franchise|Canon|Central Camera Repairing|Mr. Vishal Sharma|MZ-40 YASHWANT PLAZA, OPP. RAILWAY STATION, Indore|452001|centralcameraind@rediffmail.com;centralcameraind@gmail.com||Madhya Pradesh|Indore|22.7185612|75.869454| |||9826634353|||
https://edge.canon.co.in/service-networks|compact camera|camera collection point|Canon|Sai Services|Mr. Kapil Vyas|12/486,Mitra Niwas Road,Ratlam,Near Rangoli Garden|457001|sairtm@gmail.com||Madhya Pradesh|Ratlam|23.3282909|75.0469423| |||9302510165|||
https://edge.canon.co.in/service-networks|compact camera|Camera Collection Point|Canon|Integrated Solutions|Mr. Chaitanya Korde|1, C.O. Apartment, Opp S.C.A School,Near 4th Bridge Napier Town,|482001|isojbp@gmail.com||Madhya Pradesh|Jabalpur|23.1577471|79.937217| |||9826141405|||
https://edge.canon.co.in/service-networks|compact camera|Camera Collection Point|Canon|P.C. Infotech|Anil P Vaniya|Ward 3A,Plot No 427,Vandana Circle Ram Buag Road Adipur Gandhidham Kutchh|370205|pcinfotech.ad@gmail.com||Gujarat|Gandhidham|23.0707028|70.087529| |||9925013709|||
https://edge.canon.co.in/service-networks|compact camera|Camera Collection Point|Canon|Care Enterprise|Mr. Jagdish Navadia| 203, 2nd Floor, 203, Akashdeep Complex, Nr. Bahubali Complex, Kalanala, Bhavnagar|364001|icareprint@rediffmail.com||Gujarat|Bhavnagar|21.77|72.1426| |||9824295158|||
https://edge.canon.co.in/service-networks|compact camera|Camera Collection Point|Canon|Task Force Computers Pvt.Ltd.|Mr. Pankaj Gosain / Mrs. Kavita Gosain|M-21 Madhav Nagar|474002|kavita_gosain@yahoo.com, info.taskforce@gmail.com||Madhya Pradesh|Gwalior|26.202462|78.177636| |||9826307755|||
https://edge.canon.co.in/service-networks|compact camera|Camera Collection Point|Canon|Jain Computer Gallery|Mr. Ashish Jain|M-13, Mansarover Complex, Bus Stand, Madhya Pradesh-480001|480001|jaincomputerchw@gmail.com||Madhya Pradesh|Chhindwara|22.0582469|78.938256| |||9425146607|9424600000||
https://edge.canon.co.in/service-networks|compact camera|Camera Collection Point|Canon|Integrated Computers|Mr. Rajeev Chapra|43, Sarvodaya Market, Opp. Hotel Natraj, Madhya Pradesh-484001|484001|rchapra@rediffmail.com||Madhya Pradesh|Shahdol|23.2952398|81.359092| |||9425180717|||
https://edge.canon.co.in/service-networks|compact camera|camera collection point|Canon|PC Infotech Solutions|MR. NIKUNJ PATEL / MR. SAMEER HINGARAJIYA|Shop No. F/5, Platinum Plaza, Garden Road|389001|pcis.godhra@gmail.com||Gujarat|Godhra|22.7788745|73.618243| |||9824028910|||
https://edge.canon.co.in/service-networks|compact camera|Camera Collection Point|Canon|PC Infotech Solutions|Mr. Samir Hingarajiya/ Mr. Chetan Kumbhani|314,Jolly Plaza, Athwa Gate, Surat|395001|cccsur@gmail.com||Gujarat|Surat|21.1865144|72.810919| |||9824751549|9824751690|9822204910|
https://edge.canon.co.in/service-networks|compact camera|Camera Collection Point|Canon|Mascot Electronics|Mr. Hitesh J. Vandra|206, Golden Space Complex,Sardar Nagar Main Road, Opp. ABC Medical Store, Rajkot|360001|mascot_electronics@yahoo.com||Gujarat|Rajkot|22.2927|70.791337| |||9824211350|||
https://edge.canon.co.in/service-networks|compact camera|authorized service franchise|Canon|Power Care Systems|Mr. Sarjerao Chavan|"234,Parvati,Saidarshan Society,Shop No. ""E"" Near Brahmachaitanya Ashram."|411009|powercarepune@gmail.com||Maharashtra|Pune|18.4975432|73.852162| |||9923139941|||
https://edge.canon.co.in/service-networks|compact camera|Camera Collection Point|Canon|K-Link Computers|Mr. Sarwajit Bedi|Near Indu Chowk, Magarpara Road, Bilaspur, Chhattisgarh, Pin- 495001|495001|klinkcomputers@gmail.com||Chhattisgarh|Bilaspur|22.0800602|82.142561| |||9755535553|||
https://edge.canon.co.in/service-networks|compact camera|Camera Collection Point|Canon|Auto Serve|Yogesh Deodhar|Shop No.5 and 6, Amruta Apt., Tilak Lane, Ratnagiri|415612|autoservertn@yahoo.co.in||Maharashtra|Ratnagiri|16.9969447|73.290802| ||||||
https://edge.canon.co.in/service-networks|compact camera|Camera Collection Point|Canon|Phoenix Services Pimpri|Mr. Nitin Patil|Shop No. 67,Near Akurdi Chowk Pune|411035|cccpcmc@gmail.com||Maharashtra|Pune-Pimpri|18.6501382|73.785486| |||9049009524|||
https://edge.canon.co.in/service-networks|compact camera|camera collection point|Canon|Vivek Infotech|Mr. Chetan Kumbhani|Shop no. 31, Gurusai Apartment, Shyam Talkies Complex, Nanded-431601|431601|vivek.nanded1@gmail.com||Maharashtra|Nanded|19.1556041|77.310709| |||9552501811|||
https://edge.canon.co.in/service-networks|compact camera|Camera Collection Point|Canon|Quality Office Equipments|Mr. Arun Kadam|04 Golden Palace Opp. DBJ College|415605|quality_canon@rediffmail.com||Maharashtra|Chiplun|17.5232115|73.526038| |||9922961445|||
https://edge.canon.co.in/service-networks|compact camera|Camera Collection Point|Canon|Satyam Computers Gallery|Shrikant Gandhi|Shop No.5 Swastik Chambers,Savedi Naka,Savedi|414003|ascanr11@gmail.com||Maharashtra|Ahmednagar|19.1279725|74.728993| |||9423160126|||
https://edge.canon.co.in/service-networks|compact camera|Camera Collection Point|Canon|Printech Multisoultions|Mr. Shazad Akhtar|F - 08, 1ST FLOOR , VITTHAL APARTMENTS, ABHYANKAR ROAD, DHANTOLI, NAGPUR – 440012|440012|cccnag@gmail.com||Maharashtra|Nagpur|21.1378302|79.082889| |||9370322567|||
https://edge.canon.co.in/service-networks|compact camera|Camera Collection Point|Canon|Delta Services|Mahesh Kamble|Opp. Andhra Bank, Near Mahesh Tailer, ,Akkalkot Road, Water Tank|413005|maheshgoa@yahoo.com||Maharashtra|Solapur|17.6660291|75.951152| |||9922159922|||
https://edge.canon.co.in/service-networks|compact camera|Camera Collection Point|Canon|King Computer|Mr. Kailash Shah|204 Kh, Ram Krushi Bungalow, opp Tukaram Vidalaya, New Shahpuri, Behind Hotel Tourist|416003|kailaskshah@gmail.com||Maharashtra|Kohlapur|16.7050449|74.244362| |||9373650728|||
https://edge.canon.co.in/service-networks|compact camera|Camera Collection Point|Canon|Ashajyoti Computers|Mr. Manish A. Agrawal|20, Ground Floor,Raka Mall,Near Jai Stambh|444601|ashajyoti@rediffmail.com||Maharashtra|Amravati|20.9307563|77.754772| |||7507335334|||
https://edge.canon.co.in/service-networks|compact camera|Camera Collection Point|Canon|Mobile Computers|Mitesh C Shah|Krushna Kunj Station Road,|431401|prbmobile@gmail.com||Maharashtra|Parbhani|19.2599613|76.774014| |||9823127222|||
https://edge.canon.co.in/service-networks|compact camera|camera collection point|Canon|Vivek Infotech|Mr. Chirag Patoliya|Plot no 28,, Devkinandan Shopping complex, Nr.Sharma mangal karyalaya, Deepali Nagar, Mumbai Naka|422009|vivek.nashik@gmail.com||Maharashtra|Nasik|19.9811159|73.7822762| |||9552501814|||
https://edge.canon.co.in/service-networks|compact camera|Camera Collection Point|Canon|Visual Communication Centre|Mr. John Velayudhan|Shop No 15; 1st Floor; Municipal Shopping Complex; Gandhi Chowk; Latur - 413512|413512|johnv@visuallatur.com||Maharashtra|Latur|18.399326|76.577162| |||9890600033|||
https://edge.canon.co.in/service-networks|compact camera|Camera Collection Point|Canon|Delite Computers|Mr. Pradeep B. Kharat|DR. LAULKAR COMPLEX; SUBHASH ROAD; BEED - 431122|431122|delitecomp2002@gmail.com||Maharashtra|Beed|18.9939023|75.755591| |||9404030040|||
https://edge.canon.co.in/service-networks|compact camera|Camera Collection Point|Canon|King Computer Services|Mr. Sanjay Singh|C 3/A, 2nd Floor, Anuvrat Plaza, Phool Chowk, Nayapara Road, Raipur-492001|492001|sanjay.kcs@hotmail.com||Chhattisgarh|Raipur|21.2422818|81.633669| |||9302507090|||
https://edge.canon.co.in/service-networks|compact camera|Authorized Service Centre|Canon|Camera Service Centre|Mrs. Latha Kamalesh|No 6/1 & 6/2, R.K Mutt Road, Mylapore|600004|canon.asfchennai@gmail.com||Tamil Nadu|Chennai|13.0350806|80.268023| |||9380038109|||
https://edge.canon.co.in/service-networks|compact camera|camera collection point|Canon|City Computers|Mr Sukhvain|Gali Jangra Photo Lemination Surkhab Chowk Sirsa Haryana|125055|citycomputerssirsa@gmail.com||Haryana|Sirsa|29.5323008|75.035141| |||9812283085|||
https://edge.canon.co.in/service-networks|compact camera|Authorized Service Centre|Canon|Computer Care|Mr. Manish Jasiwal|Near Lal Ji Cinema, Jogiyapur |222002|computercarejnp@gmail.com||Uttar Pradesh|Jaunpur|25.7443189|82.687129| |||9415897979|||
https://edge.canon.co.in/service-networks|compact camera|Camera Collection Point|Canon|M/S Wintech Services|Mr. Sagar|Ground Floor, CTS No4360/B, Opposite to Maruti Mangal Karyalaya,Chavat Galli, Belagavi (Belgaum)|590001|wintech1415@gmail.com||Karnataka|Belagavi(Belgaum)|15.8657439|74.515613| |||9632703737|8314201415||
https://edge.canon.co.in/service-networks|compact camera|Camera Collection Point|Canon|J.J.Computers And Printers|Mr. Navejeevan Tiwari|Raj Palace; 1st Floor; Azad Nagar Chowk; Bhilwara; Rajasthan-311001|311001|jjcomputerbhw@gmail.com||Rajasthan|Bhilwara|25.341796|74.622542| |||8619617241|||
https://edge.canon.co.in/service-networks|compact camera|Camera Collection Point|Canon|Mars Services|Mr. Vinay Singh|744/6, Mohalla-chaiyabari, Near Kotwali Road, Basti |272001|g.marsservices@gmail.com||Uttar Pradesh|Basti|26.7998594|82.752822| |||7565943200|||
